{
  "type": "FeatureCollection",
  "features": [
    {"type":"Feature","properties":{"zip_code":"98122","no_stories":"1","confirmation_source":null,"city":"Seattle","year_built":"1920","state":"WA","neighborhood":"First Hill","building_use":"Commercial","preliminary_risk_category":"Medium Risk","retrofit_level":"No visible retrofit","address":"550 12th Ave","estimated_number_of_occupants":"11-100"},"geometry":{"type":"Point","coordinates":[-122.316793,47.607]}},{"type":"Feature","properties":{"zip_code":"98115","no_stories":"1","confirmation_source":"Google Street View","city":"Seattle","year_built":"1929","state":"WA","neighborhood":"Green Lake","building_use":"Commercial","preliminary_risk_category":"Medium Risk","retrofit_level":"No visible retrofit","address":"6403 Roosevelt Way NE","estimated_number_of_occupants":"11-100"},"geometry":{"type":"Point","coordinates":[-122.317365,47.675149]}},{"type":"Feature","properties":{"zip_code":"98104","no_stories":"6","confirmation_source":"Field Visit","city":"Seattle","year_built":"1902","state":"WA","neighborhood":"Pioneer Square/Chinatown International District","building_use":"Other Mixed Uses","preliminary_risk_category":"High Risk","retrofit_level":"Visible retrofit","address":"114 Alaskan Way S","estimated_number_of_occupants":"101+"},"geometry":{"type":"Point","coordinates":[-122.335678,47.601052]}},{"type":"Feature","properties":{"zip_code":"98107","no_stories":"2","confirmation_source":"Sandborn Insurance Maps","city":"Seattle","year_built":"1906","state":"WA","neighborhood":"Ballard","building_use":"Commercial/Office","preliminary_risk_category":"Medium Risk","retrofit_level":"No visible retrofit","address":"1766 NW Market St","estimated_number_of_occupants":"11-100"},"geometry":{"type":"Point","coordinates":[-122.381543,47.668656]}},{"type":"Feature","properties":{"zip_code":"98105","no_stories":"2","confirmation_source":"Google Street View","city":"Seattle","year_built":"1923","state":"WA","neighborhood":"Univ Dist","building_use":"Commercial","preliminary_risk_category":"Medium Risk","retrofit_level":"No visible retrofit","address":"4209 University Way NE","estimated_number_of_occupants":"101+"},"geometry":{"type":"Point","coordinates":[-122.313198,47.658674]}},{"type":"Feature","properties":{"zip_code":"98104","no_stories":"3","confirmation_source":"Field Visit","city":"Seattle","year_built":"1900","state":"WA","neighborhood":"Pioneer Square/Chinatown International District","building_use":"Other Mixed Uses","preliminary_risk_category":"Medium Risk","retrofit_level":"Permitted Retrofit","address":"301 1st Ave S","estimated_number_of_occupants":"101+"},"geometry":{"type":"Point","coordinates":[-122.334269,47.5999]}},{"type":"Feature","properties":{"zip_code":"98108","no_stories":"1","confirmation_source":"Google Street View","city":"Seattle","year_built":"1928","state":"WA","neighborhood":"Georgetown","building_use":"Commercial","preliminary_risk_category":"Medium Risk","retrofit_level":"No visible retrofit","address":"1223 S Bailey St","estimated_number_of_occupants":"11-100"},"geometry":{"type":"Point","coordinates":[-122.316533,47.547894]}},{"type":"Feature","properties":{"zip_code":"98105","no_stories":"4","confirmation_source":"Google Street View","city":"Seattle","year_built":"1919","state":"WA","neighborhood":"Univ Dist","building_use":"Commercial/Residential","preliminary_risk_category":"Medium Risk","retrofit_level":"No visible retrofit","address":"4557 University Way NE","estimated_number_of_occupants":"101+"},"geometry":{"type":"Point","coordinates":[-122.313102,47.662954]}},{"type":"Feature","properties":{"zip_code":"98122","no_stories":"3","confirmation_source":"Permit Drawing Review","city":"Seattle","year_built":"1904","state":"WA","neighborhood":"Central Area/Squire Park","building_use":"Schools","preliminary_risk_category":"Critical Risk","retrofit_level":"Permitted Retrofit","address":"810 18th Ave","estimated_number_of_occupants":"101+"},"geometry":{"type":"Point","coordinates":[-122.308895,47.609578]}},{"type":"Feature","properties":{"zip_code":"98121","no_stories":"3","confirmation_source":"Google Street View","city":"Seattle","year_built":"1925","state":"WA","neighborhood":"Belltown","building_use":"Residential","preliminary_risk_category":"Medium Risk","retrofit_level":"No visible retrofit","address":"2933 2nd Ave","estimated_number_of_occupants":"11-100"},"geometry":{"type":"Point","coordinates":[-122.352828,47.618237]}},{"type":"Feature","properties":{"zip_code":"98144","no_stories":"1","confirmation_source":"Google Street View","city":"Seattle","year_built":"1928","state":"WA","neighborhood":"North Beacon Hill/Jefferson Park","building_use":"Commercial/Office","preliminary_risk_category":"Medium Risk","retrofit_level":"No visible retrofit","address":"1811 Rainier Ave S","estimated_number_of_occupants":"11-100"},"geometry":{"type":"Point","coordinates":[-122.304587,47.586787]}},{"type":"Feature","properties":{"zip_code":"98121","no_stories":"2","confirmation_source":"Google Street View","city":"Seattle","year_built":"1902","state":"WA","neighborhood":"Belltown","building_use":"Commercial","preliminary_risk_category":"Medium Risk","retrofit_level":"No visible retrofit","address":"2114 Western Ave","estimated_number_of_occupants":"11-100"},"geometry":{"type":"Point","coordinates":[-122.345253,47.611473]}},{"type":"Feature","properties":{"zip_code":"98104","no_stories":"7","confirmation_source":"Permit Drawing Review","city":"Seattle","year_built":"1907","state":"WA","neighborhood":"Duwamish/SODO","building_use":"Commercial/Office","preliminary_risk_category":"High Risk","retrofit_level":"Permitted Retrofit","address":"166 S King St","estimated_number_of_occupants":"101+"},"geometry":{"type":"Point","coordinates":[-122.33203,47.598274]}},{"type":"Feature","properties":{"zip_code":"98105","no_stories":"1","confirmation_source":"Google Street View","city":"Seattle","year_built":"1927","state":"WA","neighborhood":"Wallingford","building_use":"Commercial","preliminary_risk_category":"Medium Risk","retrofit_level":"No visible retrofit","address":"4701 Roosevelt Way NE","estimated_number_of_occupants":"101+"},"geometry":{"type":"Point","coordinates":[-122.31742,47.663304]}},{"type":"Feature","properties":{"zip_code":"98109","no_stories":"2","confirmation_source":"Field Visit","city":"Seattle","year_built":"1906","state":"WA","neighborhood":"Cascade/Eastlake","building_use":"Commercial","preliminary_risk_category":"Medium Risk","retrofit_level":"Substantial Alteration","address":"1265 Republican St","estimated_number_of_occupants":"101+"},"geometry":{"type":"Point","coordinates":[-122.330786,47.623115]}},{"type":"Feature","properties":{"zip_code":"98104","no_stories":"4","confirmation_source":"Field Visit","city":"Seattle","year_built":"1900","state":"WA","neighborhood":"Pioneer Square/Chinatown International District","building_use":"Commercial/Office","preliminary_risk_category":"High Risk","retrofit_level":"Visible retrofit","address":"219 1st Ave S","estimated_number_of_occupants":"11-100"},"geometry":{"type":"Point","coordinates":[-122.334269,47.600217]}},{"type":"Feature","properties":{"zip_code":"98119","no_stories":"3","confirmation_source":"Google Street View","city":"Seattle","year_built":"1922","state":"WA","neighborhood":"Queen Anne","building_use":"Schools","preliminary_risk_category":"Critical Risk","retrofit_level":"Permitted Retrofit","address":"101 W Lee St","estimated_number_of_occupants":"101+"},"geometry":{"type":"Point","coordinates":[-122.358546,47.631302]}},{"type":"Feature","properties":{"zip_code":"98121","no_stories":"1","confirmation_source":"Photos from Previous Surveys","city":"Seattle","year_built":"1946","state":"WA","neighborhood":"Cascade/Eastlake","building_use":"Commercial","preliminary_risk_category":"Medium Risk","retrofit_level":"No visible retrofit","address":"2329 4th Ave","estimated_number_of_occupants":"11-100"},"geometry":{"type":"Point","coordinates":[-122.344909,47.615933]}},{"type":"Feature","properties":{"zip_code":"98108","no_stories":"1","confirmation_source":"Google Street View","city":"Seattle","year_built":"1924","state":"WA","neighborhood":"Georgetown","building_use":"Commercial","preliminary_risk_category":"Medium Risk","retrofit_level":"Substantial Alteration","address":"5625 Airport Way S","estimated_number_of_occupants":"101+"},"geometry":{"type":"Point","coordinates":[-122.319202,47.551547]}},{"type":"Feature","properties":{"zip_code":"98105","no_stories":"1","confirmation_source":"Permit Drawing Review","city":"Seattle","year_built":"1926","state":"WA","neighborhood":"Univ Dist","building_use":"Residential","preliminary_risk_category":"Medium Risk","retrofit_level":"Permitted Retrofit","address":"4134 11th Ave NE","estimated_number_of_occupants":"11-100"},"geometry":{"type":"Point","coordinates":[-122.316672,47.657938]}},{"type":"Feature","properties":{"zip_code":"98122","no_stories":"4","confirmation_source":"Google Street View","city":"Seattle","year_built":"1928","state":"WA","neighborhood":"Capitol Hill","building_use":"Residential","preliminary_risk_category":"Medium Risk","retrofit_level":"No visible retrofit","address":"1833 13th Ave","estimated_number_of_occupants":"11-100"},"geometry":{"type":"Point","coordinates":[-122.315604,47.618495]}},{"type":"Feature","properties":{"zip_code":"98104","no_stories":"1","confirmation_source":"Field Visit","city":"Seattle","year_built":"1900","state":"WA","neighborhood":"Pioneer Square/Chinatown International District","building_use":"Commercial","preliminary_risk_category":"Medium Risk","retrofit_level":"Visible retrofit","address":"115 Occidental Ave S","estimated_number_of_occupants":"11-100"},"geometry":{"type":"Point","coordinates":[-122.332924,47.601181]}},{"type":"Feature","properties":{"zip_code":"98134","no_stories":"1","confirmation_source":"Google Street View","city":"Seattle","year_built":"1927","state":"WA","neighborhood":"Duwamish/SODO","building_use":"Commercial","preliminary_risk_category":"Medium Risk","retrofit_level":"Visible retrofit","address":"2440 1st Ave S","estimated_number_of_occupants":"101+"},"geometry":{"type":"Point","coordinates":[-122.33422,47.580647]}},{"type":"Feature","properties":{"zip_code":"98195","no_stories":"2","confirmation_source":"University of Washington Facilities List","city":"Seattle","year_built":"1929","state":"WA","neighborhood":"Univ Dist","building_use":"Industrial","preliminary_risk_category":"Medium Risk","retrofit_level":"No visible retrofit","address":"3920 Jefferson Rd NE","estimated_number_of_occupants":"1-10"},"geometry":{"type":"Point","coordinates":[-122.304078,47.653369]}},{"type":"Feature","properties":{"zip_code":"98119","no_stories":"1","confirmation_source":"Permit Drawing Review","city":"Seattle","year_built":"1926","state":"WA","neighborhood":"Queen Anne","building_use":"Public Assembly","preliminary_risk_category":"High Risk","retrofit_level":"No visible retrofit","address":"2555 8th Ave W","estimated_number_of_occupants":"101+"},"geometry":{"type":"Point","coordinates":[-122.367595,47.642313]}},{"type":"Feature","properties":{"zip_code":"98101","no_stories":"1","confirmation_source":"Permit Drawing Review","city":"Seattle","year_built":"1920","state":"WA","neighborhood":"Downtown","building_use":"Commercial","preliminary_risk_category":"Medium Risk","retrofit_level":"No visible retrofit","address":"1513 3rd Ave","estimated_number_of_occupants":"11-100"},"geometry":{"type":"Point","coordinates":[-122.338211,47.610161]}},{"type":"Feature","properties":{"zip_code":"98122","no_stories":"2","confirmation_source":"Permit Drawing Review","city":"Seattle","year_built":"1910","state":"WA","neighborhood":"Capitol Hill","building_use":"Public Assembly","preliminary_risk_category":"High Risk","retrofit_level":"No visible retrofit","address":"1625 Broadway","estimated_number_of_occupants":"101+"},"geometry":{"type":"Point","coordinates":[-122.320824,47.616005]}},{"type":"Feature","properties":{"zip_code":"98109","no_stories":"2","confirmation_source":"Google Street View","city":"Seattle","year_built":"1934","state":"WA","neighborhood":"Queen Anne","building_use":"Commercial/Office","preliminary_risk_category":"Medium Risk","retrofit_level":"No visible retrofit","address":"1735 Westlake Ave N","estimated_number_of_occupants":"11-100"},"geometry":{"type":"Point","coordinates":[-122.340432,47.634701]}},{"type":"Feature","properties":{"zip_code":"98116","no_stories":"1","confirmation_source":"Photos from Previous Surveys","city":"Seattle","year_built":"1915","state":"WA","neighborhood":"Alki/Admiral","building_use":"Commercial","preliminary_risk_category":"Medium Risk","retrofit_level":"No visible retrofit","address":"1321 Harbor Ave SW","estimated_number_of_occupants":"11-100"},"geometry":{"type":"Point","coordinates":[-122.382487,47.591454]}},{"type":"Feature","properties":{"zip_code":"98134","no_stories":"2","confirmation_source":"Google Street View","city":"Seattle","year_built":"1926","state":"WA","neighborhood":"North Delridge","building_use":"Industrial","preliminary_risk_category":"Medium Risk","retrofit_level":"No visible retrofit","address":"1128 SW Spokane St","estimated_number_of_occupants":"11-100"},"geometry":{"type":"Point","coordinates":[-122.34894,47.571433]}},{"type":"Feature","properties":{"zip_code":"98136","no_stories":"1","confirmation_source":"Field Visit","city":"Seattle","year_built":"1928","state":"WA","neighborhood":"Fauntleroy/Seaview","building_use":"Public Assembly","preliminary_risk_category":"High Risk","retrofit_level":"No visible retrofit","address":"6459 California Ave SW","estimated_number_of_occupants":"101+"},"geometry":{"type":"Point","coordinates":[-122.387246,47.545028]}},{"type":"Feature","properties":{"zip_code":"98103","no_stories":"3","confirmation_source":"Photos from Previous Surveys","city":"Seattle","year_built":"1919","state":"WA","neighborhood":"Greenwood/Phinney Ridge","building_use":"Commercial/Residential","preliminary_risk_category":"Medium Risk","retrofit_level":"No visible retrofit","address":"213 N 85th St","estimated_number_of_occupants":"11-100"},"geometry":{"type":"Point","coordinates":[-122.35579,47.6906]}},{"type":"Feature","properties":{"zip_code":"98101","no_stories":"5","confirmation_source":"Google Street View","city":"Seattle","year_built":"1901","state":"WA","neighborhood":"Belltown","building_use":"Other Mixed Uses","preliminary_risk_category":"Medium Risk","retrofit_level":"Visible retrofit","address":"1930 Post Al","estimated_number_of_occupants":"101+"},"geometry":{"type":"Point","coordinates":[-122.342736,47.610551]}},{"type":"Feature","properties":{"zip_code":"98103","no_stories":"1","confirmation_source":"Google Street View","city":"Seattle","year_built":"1929","state":"WA","neighborhood":"Wallingford","building_use":"Commercial","preliminary_risk_category":"Medium Risk","retrofit_level":"Substantial Alteration","address":"2104 N 45th St","estimated_number_of_occupants":"11-100"},"geometry":{"type":"Point","coordinates":[-122.333373,47.661383]}},{"type":"Feature","properties":{"zip_code":"98104","no_stories":"7","confirmation_source":"Permit Drawing Review","city":"Seattle","year_built":"1913","state":"WA","neighborhood":"Duwamish/SODO","building_use":"Commercial/Office","preliminary_risk_category":"High Risk","retrofit_level":"Permitted Retrofit","address":"411 1st Ave S","estimated_number_of_occupants":"101+"},"geometry":{"type":"Point","coordinates":[-122.334287,47.598657]}},{"type":"Feature","properties":{"zip_code":"98121","no_stories":"2","confirmation_source":"Permit Drawing Review","city":"Seattle","year_built":"1914","state":"WA","neighborhood":"Cascade/Eastlake","building_use":"Office","preliminary_risk_category":"Medium Risk","retrofit_level":"Permitted Retrofit","address":"2118 3rd Ave","estimated_number_of_occupants":"11-100"},"geometry":{"type":"Point","coordinates":[-122.342938,47.613604]}},{"type":"Feature","properties":{"zip_code":"98118","no_stories":"2","confirmation_source":"Google Street View","city":"Seattle","year_built":"1921","state":"WA","neighborhood":"Columbia City","building_use":"Industrial","preliminary_risk_category":"Medium Risk","retrofit_level":"No visible retrofit","address":"6315 Rainier Ave S","estimated_number_of_occupants":"1-10"},"geometry":{"type":"Point","coordinates":[-122.275698,47.545777]}},{"type":"Feature","properties":{"zip_code":"98119","no_stories":"3","confirmation_source":"Permit Drawing Review","city":"Seattle","year_built":"1912","state":"WA","neighborhood":"Queen Anne","building_use":"Public Assembly","preliminary_risk_category":"High Risk","retrofit_level":"Visible retrofit","address":"100 W Roy St","estimated_number_of_occupants":"101+"},"geometry":{"type":"Point","coordinates":[-122.358388,47.625709]}},{"type":"Feature","properties":{"zip_code":"98122","no_stories":"2","confirmation_source":"Google Street View","city":"Seattle","year_built":"1920","state":"WA","neighborhood":"Capitol Hill","building_use":"Commercial","preliminary_risk_category":"Medium Risk","retrofit_level":"Permitted Retrofit","address":"421 E Pike St","estimated_number_of_occupants":"11-100"},"geometry":{"type":"Point","coordinates":[-122.325751,47.614085]}},{"type":"Feature","properties":{"zip_code":"98134","no_stories":"2","confirmation_source":"Permit Drawing Review","city":"Seattle","year_built":"1929","state":"WA","neighborhood":"Duwamish/SODO","building_use":"Public Assembly","preliminary_risk_category":"High Risk","retrofit_level":"Substantial Alteration","address":"2915 1st Ave S","estimated_number_of_occupants":"101+"},"geometry":{"type":"Point","coordinates":[-122.334213,47.577181]}},{"type":"Feature","properties":{"zip_code":"98104","no_stories":"6","confirmation_source":"Google Street View","city":"Seattle","year_built":"1924","state":"WA","neighborhood":"First Hill","building_use":"Residential","preliminary_risk_category":"Medium Risk","retrofit_level":"Permitted Retrofit","address":"1019 Terry Ave","estimated_number_of_occupants":"101+"},"geometry":{"type":"Point","coordinates":[-122.326683,47.609376]}},{"type":"Feature","properties":{"zip_code":"98144","no_stories":"2","confirmation_source":"Field Visit","city":"Seattle","year_built":"1929","state":"WA","neighborhood":"North Beacon Hill/Jefferson Park","building_use":"Residential","preliminary_risk_category":"Medium Risk","retrofit_level":"No visible retrofit","address":"2541 15th Ave S","estimated_number_of_occupants":"11-100"},"geometry":{"type":"Point","coordinates":[-122.313413,47.579699]}},{"type":"Feature","properties":{"zip_code":"98106","no_stories":"2","confirmation_source":"Google Street View","city":"Seattle","year_built":"1949","state":"WA","neighborhood":"Roxhill/Westwood","building_use":"Residential","preliminary_risk_category":"Medium Risk","retrofit_level":"No visible retrofit","address":"9643 20th Ave SW","estimated_number_of_occupants":"11-100"},"geometry":{"type":"Point","coordinates":[-122.359193,47.516776]}},{"type":"Feature","properties":{"zip_code":"98121","no_stories":"3","confirmation_source":"Google Street View","city":"Seattle","year_built":"1900","state":"WA","neighborhood":"Belltown","building_use":"Commercial/Residential","preliminary_risk_category":"Medium Risk","retrofit_level":"Permitted Retrofit","address":"2300 1st Ave","estimated_number_of_occupants":"101+"},"geometry":{"type":"Point","coordinates":[-122.346712,47.613481]}},{"type":"Feature","properties":{"zip_code":"98103","no_stories":"3","confirmation_source":"Google Street View","city":"Seattle","year_built":"1930","state":"WA","neighborhood":"Greenwood/Phinney Ridge","building_use":"Residential","preliminary_risk_category":"Medium Risk","retrofit_level":"Permitted Retrofit","address":"5705 Phinney Ave N","estimated_number_of_occupants":"11-100"},"geometry":{"type":"Point","coordinates":[-122.3544,47.670679]}},{"type":"Feature","properties":{"zip_code":"98144","no_stories":"2","confirmation_source":"Google Street View","city":"Seattle","year_built":"1907","state":"WA","neighborhood":"Madrona/Leschi","building_use":"Commercial","preliminary_risk_category":"Medium Risk","retrofit_level":"Permitted Retrofit","address":"2713 S Jackson St","estimated_number_of_occupants":"11-100"},"geometry":{"type":"Point","coordinates":[-122.296767,47.599231]}},{"type":"Feature","properties":{"zip_code":"98112","no_stories":"3","confirmation_source":"Google Street View","city":"Seattle","year_built":"1926","state":"WA","neighborhood":"Capitol Hill","building_use":"Residential","preliminary_risk_category":"Medium Risk","retrofit_level":"No visible retrofit","address":"1450 E Republican St","estimated_number_of_occupants":"11-100"},"geometry":{"type":"Point","coordinates":[-122.313317,47.623099]}},{"type":"Feature","properties":{"zip_code":"98101","no_stories":"1","confirmation_source":"Field Visit","city":"Seattle","year_built":"1912","state":"WA","neighborhood":"Capitol Hill","building_use":"Commercial","preliminary_risk_category":"Medium Risk","retrofit_level":"No visible retrofit","address":"1201 Pine St","estimated_number_of_occupants":"11-100"},"geometry":{"type":"Point","coordinates":[-122.32842,47.615045]}},{"type":"Feature","properties":{"zip_code":"98105","no_stories":"3","confirmation_source":"Field Visit","city":"Seattle","year_built":"1916","state":"WA","neighborhood":"Univ Dist","building_use":"Commercial/Residential","preliminary_risk_category":"Medium Risk","retrofit_level":"Visible retrofit","address":"4509 University Way NE","estimated_number_of_occupants":"11-100"},"geometry":{"type":"Point","coordinates":[-122.313127,47.661659]}},{"type":"Feature","properties":{"zip_code":"98115","no_stories":"1","confirmation_source":"Permit Drawing Review","city":"Seattle","year_built":"1949","state":"WA","neighborhood":"Ravenna/Bryant","building_use":"Schools","preliminary_risk_category":"Critical Risk","retrofit_level":"Permitted Retrofit","address":"6220 32nd Ave NE","estimated_number_of_occupants":"101+"},"geometry":{"type":"Point","coordinates":[-122.293281,47.675058]}},{"type":"Feature","properties":{"zip_code":"98102","no_stories":"4","confirmation_source":"Photos from Previous Surveys","city":"Seattle","year_built":"1910","state":"WA","neighborhood":"Cascade/Eastlake","building_use":"Residential","preliminary_risk_category":"High Risk","retrofit_level":"Permitted Retrofit","address":"1027 Bellevue Court E","estimated_number_of_occupants":"11-100"},"geometry":{"type":"Point","coordinates":[-122.327107,47.627568]}},{"type":"Feature","properties":{"zip_code":"98112","no_stories":"2","confirmation_source":"Permit Drawing Review","city":"Seattle","year_built":"1923","state":"WA","neighborhood":"Miller Park","building_use":"Public Assembly","preliminary_risk_category":"High Risk","retrofit_level":"No visible retrofit","address":"732 18th Ave E","estimated_number_of_occupants":"101+"},"geometry":{"type":"Point","coordinates":[-122.308636,47.62605]}},{"type":"Feature","properties":{"zip_code":"98105","no_stories":"1","confirmation_source":"Photos from Previous Surveys","city":"Seattle","year_built":"1924","state":"WA","neighborhood":"Univ Dist","building_use":"Commercial","preliminary_risk_category":"Medium Risk","retrofit_level":"No visible retrofit","address":"4544 University Way NE","estimated_number_of_occupants":"11-100"},"geometry":{"type":"Point","coordinates":[-122.313107,47.662681]}},{"type":"Feature","properties":{"zip_code":"98107","no_stories":"2","confirmation_source":"Google Street View","city":"Seattle","year_built":"1905","state":"WA","neighborhood":"Ballard","building_use":"Commercial/Office","preliminary_risk_category":"Medium Risk","retrofit_level":"Substantial Alteration","address":"5101 Ballard Ave NW","estimated_number_of_occupants":"11-100"},"geometry":{"type":"Point","coordinates":[-122.380994,47.664544]}},{"type":"Feature","properties":{"zip_code":"98104","no_stories":"3","confirmation_source":"Permit Drawing Review","city":"Seattle","year_built":"1909","state":"WA","neighborhood":"Pioneer Square/Chinatown International District","building_use":"Commercial/Residential","preliminary_risk_category":"Medium Risk","retrofit_level":"Substantial Alteration","address":"657 S Weller St","estimated_number_of_occupants":"101+"},"geometry":{"type":"Point","coordinates":[-122.324692,47.597535]}},{"type":"Feature","properties":{"zip_code":"98101","no_stories":"4","confirmation_source":"Google Street View","city":"Seattle","year_built":"1900","state":"WA","neighborhood":"Downtown","building_use":"Commercial/Residential","preliminary_risk_category":"Medium Risk","retrofit_level":"Substantial Alteration","address":"107 Pine St","estimated_number_of_occupants":"101+"},"geometry":{"type":"Point","coordinates":[-122.340601,47.609958]}},{"type":"Feature","properties":{"zip_code":"98121","no_stories":"2","confirmation_source":"Photos from Previous Surveys","city":"Seattle","year_built":"0","state":"WA","neighborhood":"Belltown","building_use":"Commercial","preliminary_risk_category":"Medium Risk","retrofit_level":"No visible retrofit","address":"2407 1st Ave","estimated_number_of_occupants":"11-100"},"geometry":{"type":"Point","coordinates":[-122.348293,47.61441]}},{"type":"Feature","properties":{"zip_code":"98122","no_stories":"4","confirmation_source":"Google Street View","city":"Seattle","year_built":"1929","state":"WA","neighborhood":"Capitol Hill","building_use":"Residential","preliminary_risk_category":"Medium Risk","retrofit_level":"No visible retrofit","address":"1819 Bellevue Ave","estimated_number_of_occupants":"11-100"},"geometry":{"type":"Point","coordinates":[-122.326761,47.618329]}},{"type":"Feature","properties":{"zip_code":"98122","no_stories":"1","confirmation_source":"Permit Drawing Review","city":"Seattle","year_built":"1913","state":"WA","neighborhood":"Central Area/Squire Park","building_use":"Public Assembly","preliminary_risk_category":"Medium Risk","retrofit_level":"Substantial Alteration","address":"2300 E Yesler Way","estimated_number_of_occupants":"11-100"},"geometry":{"type":"Point","coordinates":[-122.301993,47.601678]}},{"type":"Feature","properties":{"zip_code":"98104","no_stories":"4","confirmation_source":"Google Street View","city":"Seattle","year_built":"1910","state":"WA","neighborhood":"Pioneer Square/Chinatown International District","building_use":"Commercial/Residential","preliminary_risk_category":"Medium Risk","retrofit_level":"Permitted Retrofit","address":"705 S King St","estimated_number_of_occupants":"101+"},"geometry":{"type":"Point","coordinates":[-122.323452,47.598365]}},{"type":"Feature","properties":{"zip_code":"98104","no_stories":"5","confirmation_source":"Permit Drawing Review","city":"Seattle","year_built":"1900","state":"WA","neighborhood":"Downtown","building_use":"Commercial/Office","preliminary_risk_category":"Medium Risk","retrofit_level":"Substantial Alteration","address":"1012 1st Ave","estimated_number_of_occupants":"101+"},"geometry":{"type":"Point","coordinates":[-122.336654,47.605118]}},{"type":"Feature","properties":{"zip_code":"98103","no_stories":"1","confirmation_source":"Permit Drawing Review","city":"Seattle","year_built":"1929","state":"WA","neighborhood":"Green Lake","building_use":"Commercial","preliminary_risk_category":"Medium Risk","retrofit_level":"No visible retrofit","address":"7918 Aurora Ave N","estimated_number_of_occupants":"11-100"},"geometry":{"type":"Point","coordinates":[-122.344416,47.686717]}},{"type":"Feature","properties":{"zip_code":"98134","no_stories":"4","confirmation_source":"Google Street View","city":"Seattle","year_built":"1907","state":"WA","neighborhood":"Duwamish/SODO","building_use":"Commercial/Office","preliminary_risk_category":"High Risk","retrofit_level":"Substantial Alteration","address":"1014 1st Ave S","estimated_number_of_occupants":"11-100"},"geometry":{"type":"Point","coordinates":[-122.334234,47.593626]}},{"type":"Feature","properties":{"zip_code":"98103","no_stories":"1","confirmation_source":"Google Street View","city":"Seattle","year_built":"1928","state":"WA","neighborhood":"Fremont","building_use":"Office","preliminary_risk_category":"Medium Risk","retrofit_level":"Visible retrofit","address":"3600 Wallingford Ave N","estimated_number_of_occupants":"11-100"},"geometry":{"type":"Point","coordinates":[-122.336323,47.650683]}},{"type":"Feature","properties":{"zip_code":"98102","no_stories":"1","confirmation_source":"Field Visit","city":"Seattle","year_built":"1931","state":"WA","neighborhood":"Capitol Hill","building_use":"Public Assembly","preliminary_risk_category":"Medium Risk","retrofit_level":"No visible retrofit","address":"615 Broadway E","estimated_number_of_occupants":"11-100"},"geometry":{"type":"Point","coordinates":[-122.32096,47.624764]}},{"type":"Feature","properties":{"zip_code":"98103","no_stories":"2","confirmation_source":"Field Visit","city":"Seattle","year_built":"1922","state":"WA","neighborhood":"Greenwood/Phinney Ridge","building_use":"Public Assembly","preliminary_risk_category":"High Risk","retrofit_level":"No visible retrofit","address":"7800 Greenwood Ave N","estimated_number_of_occupants":"101+"},"geometry":{"type":"Point","coordinates":[-122.355295,47.685745]}},{"type":"Feature","properties":{"zip_code":"98101","no_stories":"4","confirmation_source":"Photos from Previous Surveys","city":"Seattle","year_built":"1916","state":"WA","neighborhood":"Capitol Hill","building_use":"Residential","preliminary_risk_category":"Medium Risk","retrofit_level":"No visible retrofit","address":"1222 Summit Ave","estimated_number_of_occupants":"11-100"},"geometry":{"type":"Point","coordinates":[-122.324714,47.612177]}},{"type":"Feature","properties":{"zip_code":"98122","no_stories":"2","confirmation_source":"Google Street View","city":"Seattle","year_built":"1926","state":"WA","neighborhood":"First Hill","building_use":"Commercial","preliminary_risk_category":"Medium Risk","retrofit_level":"Permitted Retrofit","address":"104 12th Ave","estimated_number_of_occupants":"11-100"},"geometry":{"type":"Point","coordinates":[-122.31678,47.601849]}},{"type":"Feature","properties":{"zip_code":"98105","no_stories":"1","confirmation_source":"Google Street View","city":"Seattle","year_built":"1922","state":"WA","neighborhood":"Univ Dist","building_use":"Commercial","preliminary_risk_category":"Medium Risk","retrofit_level":"No visible retrofit","address":"4235 University Way NE","estimated_number_of_occupants":"11-100"},"geometry":{"type":"Point","coordinates":[-122.313182,47.659328]}},{"type":"Feature","properties":{"zip_code":"98104","no_stories":"1","confirmation_source":"Google Street View","city":"Seattle","year_built":"1926","state":"WA","neighborhood":"Pioneer Square/Chinatown International District","building_use":"Commercial","preliminary_risk_category":"Medium Risk","retrofit_level":"No visible retrofit","address":"500 S King St","estimated_number_of_occupants":"11-100"},"geometry":{"type":"Point","coordinates":[-122.327494,47.598349]}},{"type":"Feature","properties":{"zip_code":"98107","no_stories":"2","confirmation_source":"Field Visit","city":"Seattle","year_built":"1915","state":"WA","neighborhood":"Ballard","building_use":"Schools","preliminary_risk_category":"Critical Risk","retrofit_level":"Substantial Alteration","address":"5201 Ballard Ave NW","estimated_number_of_occupants":"101+"},"geometry":{"type":"Point","coordinates":[-122.38218,47.665561]}},{"type":"Feature","properties":{"zip_code":"98195","no_stories":"3","confirmation_source":"Permit Drawing Review","city":"Seattle","year_built":"1926","state":"WA","neighborhood":"Univ Dist","building_use":"Schools","preliminary_risk_category":"Critical Risk","retrofit_level":"Permitted Retrofit","address":"4276 E Stevens Way NE","estimated_number_of_occupants":"101+"},"geometry":null},{"type":"Feature","properties":{"zip_code":"98118","no_stories":"1","confirmation_source":"Field Visit","city":"Seattle","year_built":"1920","state":"WA","neighborhood":"Columbia City","building_use":"Public Assembly","preliminary_risk_category":"High Risk","retrofit_level":"Permitted Retrofit","address":"3804 S Hudson St","estimated_number_of_occupants":"101+"},"geometry":{"type":"Point","coordinates":[-122.284265,47.557048]}},{"type":"Feature","properties":{"zip_code":"98122","no_stories":"1","confirmation_source":"Google Street View","city":"Seattle","year_built":"1919","state":"WA","neighborhood":"Central Area/Squire Park","building_use":"Office","preliminary_risk_category":"Medium Risk","retrofit_level":"Substantial Alteration","address":"1658 20th Ave","estimated_number_of_occupants":"11-100"},"geometry":{"type":"Point","coordinates":[-122.306143,47.616867]}},{"type":"Feature","properties":{"zip_code":"98107","no_stories":"2","confirmation_source":"Field Visit","city":"Seattle","year_built":"1928","state":"WA","neighborhood":"Ballard","building_use":"Commercial","preliminary_risk_category":"Medium Risk","retrofit_level":"No visible retrofit","address":"2228 NW Market St","estimated_number_of_occupants":"11-100"},"geometry":{"type":"Point","coordinates":[-122.386113,47.668704]}},{"type":"Feature","properties":{"zip_code":"98117","no_stories":"3","confirmation_source":"Google Street View","city":"Seattle","year_built":"1929","state":"WA","neighborhood":"Whittier Heights","building_use":"Schools","preliminary_risk_category":"Critical Risk","retrofit_level":"Permitted Retrofit","address":"6510 23rd Ave NW","estimated_number_of_occupants":"101+"},"geometry":{"type":"Point","coordinates":[-122.385355,47.676421]}},{"type":"Feature","properties":{"zip_code":"98134","no_stories":"2","confirmation_source":"Field Visit","city":"Seattle","year_built":"1890","state":"WA","neighborhood":"Duwamish/SODO","building_use":"Commercial","preliminary_risk_category":"Medium Risk","retrofit_level":"No visible retrofit","address":"3100 Airport Way S","estimated_number_of_occupants":"11-100"},"geometry":{"type":"Point","coordinates":[-122.321437,47.575485]}},{"type":"Feature","properties":{"zip_code":"98136","no_stories":"1","confirmation_source":"Google Street View","city":"Seattle","year_built":"1926","state":"WA","neighborhood":"Fauntleroy/Seaview","building_use":"Residential","preliminary_risk_category":"Medium Risk","retrofit_level":"No visible retrofit","address":"7101 California Ave SW","estimated_number_of_occupants":"11-100"},"geometry":{"type":"Point","coordinates":[-122.387283,47.539797]}},{"type":"Feature","properties":{"zip_code":"98121","no_stories":"2","confirmation_source":"Sandborn Insurance Maps","city":"Seattle","year_built":"1917","state":"WA","neighborhood":"Belltown","building_use":"Other Mixed Uses","preliminary_risk_category":"Medium Risk","retrofit_level":"No visible retrofit","address":"2515 Western Ave","estimated_number_of_occupants":"101+"},"geometry":{"type":"Point","coordinates":[-122.349973,47.614245]}},{"type":"Feature","properties":{"zip_code":"98134","no_stories":"4","confirmation_source":"Google Street View","city":"Seattle","year_built":"1900","state":"WA","neighborhood":"Duwamish/SODO","building_use":"Office","preliminary_risk_category":"High Risk","retrofit_level":"Permitted Retrofit","address":"2200 1st Ave S","estimated_number_of_occupants":"101+"},"geometry":{"type":"Point","coordinates":[-122.334217,47.583513]}},{"type":"Feature","properties":{"zip_code":"98104","no_stories":"4","confirmation_source":"Field Visit","city":"Seattle","year_built":"1904","state":"WA","neighborhood":"Pioneer Square/Chinatown International District","building_use":"Office","preliminary_risk_category":"Medium Risk","retrofit_level":"Visible retrofit","address":"206 3rd Ave S","estimated_number_of_occupants":"11-100"},"geometry":{"type":"Point","coordinates":[-122.330283,47.600583]}},{"type":"Feature","properties":{"zip_code":"98133","no_stories":"1","confirmation_source":"Google Street View","city":"Seattle","year_built":"1931","state":"WA","neighborhood":"Licton Springs","building_use":"Commercial","preliminary_risk_category":"Medium Risk","retrofit_level":"No visible retrofit","address":"10325 Aurora Ave N","estimated_number_of_occupants":"11-100"},"geometry":{"type":"Point","coordinates":[-122.344751,47.704078]}},{"type":"Feature","properties":{"zip_code":"98104","no_stories":"7","confirmation_source":"Permit Drawing Review","city":"Seattle","year_built":"1904","state":"WA","neighborhood":"Duwamish/SODO","building_use":"Commercial/Office","preliminary_risk_category":"High Risk","retrofit_level":"Permitted Retrofit","address":"83 S King St","estimated_number_of_occupants":"101+"},"geometry":{"type":"Point","coordinates":[-122.33504,47.598298]}},{"type":"Feature","properties":{"zip_code":"98104","no_stories":"3","confirmation_source":"Field Visit","city":"Seattle","year_built":"1900","state":"WA","neighborhood":"Pioneer Square/Chinatown International District","building_use":"Other Mixed Uses","preliminary_risk_category":"Medium Risk","retrofit_level":"Substantial Alteration","address":"312 2nd Ave S","estimated_number_of_occupants":"101+"},"geometry":{"type":"Point","coordinates":[-122.331591,47.59954]}},{"type":"Feature","properties":{"zip_code":"98122","no_stories":"1","confirmation_source":"Google Street View","city":"Seattle","year_built":"1912","state":"WA","neighborhood":"Judkins Park","building_use":"Commercial","preliminary_risk_category":"Medium Risk","retrofit_level":"No visible retrofit","address":"1713 E Yesler Way","estimated_number_of_occupants":"11-100"},"geometry":{"type":"Point","coordinates":[-122.309499,47.601692]}},{"type":"Feature","properties":{"zip_code":"98112","no_stories":"4","confirmation_source":"Photos from Previous Surveys","city":"Seattle","year_built":"1911","state":"WA","neighborhood":"Montlake/Portage Bay","building_use":"Schools","preliminary_risk_category":"Critical Risk","retrofit_level":"Permitted Retrofit","address":"1617 Interlaken Dr E","estimated_number_of_occupants":"101+"},"geometry":{"type":"Point","coordinates":[-122.307511,47.634012]}},{"type":"Feature","properties":{"zip_code":"98109","no_stories":"2","confirmation_source":"Photos from Previous Surveys","city":"Seattle","year_built":"1907","state":"WA","neighborhood":"Queen Anne","building_use":"Residential","preliminary_risk_category":"Medium Risk","retrofit_level":"No visible retrofit","address":"117 John St","estimated_number_of_occupants":"11-100"},"geometry":{"type":"Point","coordinates":[-122.354514,47.619763]}},{"type":"Feature","properties":{"zip_code":"98109","no_stories":"1","confirmation_source":"Field Visit","city":"Seattle","year_built":"1911","state":"WA","neighborhood":"Queen Anne","building_use":"Commercial","preliminary_risk_category":"Medium Risk","retrofit_level":"No visible retrofit","address":"2201 Queen Anne Ave N","estimated_number_of_occupants":"11-100"},"geometry":{"type":"Point","coordinates":[-122.356936,47.638558]}},{"type":"Feature","properties":{"zip_code":"98105","no_stories":"1","confirmation_source":"Photos from Previous Surveys","city":"Seattle","year_built":"1924","state":"WA","neighborhood":"Univ Dist","building_use":"Commercial","preliminary_risk_category":"Medium Risk","retrofit_level":"No visible retrofit","address":"4325 University Way NE","estimated_number_of_occupants":"11-100"},"geometry":{"type":"Point","coordinates":[-122.313151,47.66059]}},{"type":"Feature","properties":{"zip_code":"98121","no_stories":"1","confirmation_source":"Google Street View","city":"Seattle","year_built":"1927","state":"WA","neighborhood":"Cascade/Eastlake","building_use":"Commercial","preliminary_risk_category":"Medium Risk","retrofit_level":"No visible retrofit","address":"401 Cedar St","estimated_number_of_occupants":"101+"},"geometry":{"type":"Point","coordinates":[-122.347783,47.617995]}},{"type":"Feature","properties":{"zip_code":"98134","no_stories":"1","confirmation_source":"Field Visit","city":"Seattle","year_built":"1930","state":"WA","neighborhood":"Duwamish/SODO","building_use":"Commercial","preliminary_risk_category":"Medium Risk","retrofit_level":"No visible retrofit","address":"5021 Colorado Ave S","estimated_number_of_occupants":"11-100"},"geometry":{"type":"Point","coordinates":[-122.336828,47.556643]}},{"type":"Feature","properties":{"zip_code":"98102","no_stories":"3","confirmation_source":"Google Street View","city":"Seattle","year_built":"1928","state":"WA","neighborhood":"Capitol Hill","building_use":"Residential","preliminary_risk_category":"Medium Risk","retrofit_level":"No visible retrofit","address":"221 Belmont Ave E","estimated_number_of_occupants":"11-100"},"geometry":{"type":"Point","coordinates":[-122.324023,47.620372]}},{"type":"Feature","properties":{"zip_code":"98109","no_stories":"1","confirmation_source":"Google Street View","city":"Seattle","year_built":"1920","state":"WA","neighborhood":"Queen Anne","building_use":"Commercial","preliminary_risk_category":"Medium Risk","retrofit_level":"No visible retrofit","address":"706 Taylor Ave N","estimated_number_of_occupants":"11-100"},"geometry":{"type":"Point","coordinates":[-122.346262,47.625756]}},{"type":"Feature","properties":{"zip_code":"98103","no_stories":"1","confirmation_source":"Permit Drawing Review","city":"Seattle","year_built":"1927","state":"WA","neighborhood":"Greenwood/Phinney Ridge","building_use":"Commercial","preliminary_risk_category":"Medium Risk","retrofit_level":"No visible retrofit","address":"8410 Greenwood Ave N","estimated_number_of_occupants":"11-100"},"geometry":{"type":"Point","coordinates":[-122.355307,47.690304]}},{"type":"Feature","properties":{"zip_code":"98104","no_stories":"1","confirmation_source":"Google Street View","city":"Seattle","year_built":"1924","state":"WA","neighborhood":"Pioneer Square/Chinatown International District","building_use":"Commercial","preliminary_risk_category":"Medium Risk","retrofit_level":"No visible retrofit","address":"516 7th Ave S","estimated_number_of_occupants":"11-100"},"geometry":{"type":"Point","coordinates":[-122.323758,47.597849]}},{"type":"Feature","properties":{"zip_code":"98122","no_stories":"4","confirmation_source":"Google Street View","city":"Seattle","year_built":"1914","state":"WA","neighborhood":"Capitol Hill","building_use":"Residential","preliminary_risk_category":"Medium Risk","retrofit_level":"No visible retrofit","address":"504 E Denny Way","estimated_number_of_occupants":"11-100"},"geometry":{"type":"Point","coordinates":[-122.324922,47.618493]}},{"type":"Feature","properties":{"zip_code":"98103","no_stories":"1","confirmation_source":"Google Street View","city":"Seattle","year_built":"1924","state":"WA","neighborhood":"Wallingford","building_use":"Commercial","preliminary_risk_category":"Medium Risk","retrofit_level":"No visible retrofit","address":"1307 N 46th St","estimated_number_of_occupants":"11-100"},"geometry":{"type":"Point","coordinates":[-122.341707,47.662114]}},{"type":"Feature","properties":{"zip_code":"98118","no_stories":"2","confirmation_source":"Field Visit","city":"Seattle","year_built":"1907","state":"WA","neighborhood":"Columbia City","building_use":"Commercial/Residential","preliminary_risk_category":"Medium Risk","retrofit_level":"No visible retrofit","address":"5619 Rainier Ave S","estimated_number_of_occupants":"11-100"},"geometry":{"type":"Point","coordinates":[-122.277808,47.551411]}},{"type":"Feature","properties":{"zip_code":"98134","no_stories":"1","confirmation_source":"Permit Drawing Review","city":"Seattle","year_built":"1929","state":"WA","neighborhood":"Pioneer Square/Chinatown International District","building_use":"Commercial","preliminary_risk_category":"Medium Risk","retrofit_level":"No visible retrofit","address":"700 S Dearborn St","estimated_number_of_occupants":"11-100"},"geometry":{"type":"Point","coordinates":[-122.323383,47.595835]}},{"type":"Feature","properties":{"zip_code":"98122","no_stories":"3","confirmation_source":"Permit Drawing Review","city":"Seattle","year_built":"1912","state":"WA","neighborhood":"Capitol Hill","building_use":"Public Assembly","preliminary_risk_category":"High Risk","retrofit_level":"No visible retrofit","address":"722 E Union St","estimated_number_of_occupants":"101+"},"geometry":{"type":"Point","coordinates":[-122.322495,47.613001]}},{"type":"Feature","properties":{"zip_code":"98105","no_stories":"3","confirmation_source":"White Card Permit Records","city":"Seattle","year_built":"1927","state":"WA","neighborhood":"Ravenna/Bryant","building_use":"Residential","preliminary_risk_category":"Medium Risk","retrofit_level":"No visible retrofit","address":"4600 22nd Ave NE","estimated_number_of_occupants":"11-100"},"geometry":{"type":"Point","coordinates":[-122.304413,47.662126]}},{"type":"Feature","properties":{"zip_code":"98116","no_stories":"1","confirmation_source":"Field Visit","city":"Seattle","year_built":"1924","state":"WA","neighborhood":"West Seattle Junction/Genesee Hill","building_use":"Commercial","preliminary_risk_category":"Medium Risk","retrofit_level":"No visible retrofit","address":"4508 California Ave SW","estimated_number_of_occupants":"11-100"},"geometry":{"type":"Point","coordinates":[-122.386774,47.562484]}},{"type":"Feature","properties":{"zip_code":"98107","no_stories":"3","confirmation_source":"Permit Drawing Review","city":"Seattle","year_built":"1903","state":"WA","neighborhood":"Ballard","building_use":"Commercial","preliminary_risk_category":"Medium Risk","retrofit_level":"Permitted Retrofit","address":"5232 Ballard Ave NW","estimated_number_of_occupants":"101+"},"geometry":{"type":"Point","coordinates":[-122.383008,47.666292]}},{"type":"Feature","properties":{"zip_code":"98125","no_stories":"2","confirmation_source":"Google Street View","city":"Seattle","year_built":"1931","state":"WA","neighborhood":"Olympic Hills/Victory Heights","building_use":"Office","preliminary_risk_category":"Medium Risk","retrofit_level":"No visible retrofit","address":"2611 NE 125th St","estimated_number_of_occupants":"101+"},"geometry":{"type":"Point","coordinates":[-122.299368,47.719305]}},{"type":"Feature","properties":{"zip_code":"98115","no_stories":"1","confirmation_source":"Previous Seismic Reports","city":"Seattle","year_built":"1939","state":"WA","neighborhood":"Laurelhurst/Sand Point","building_use":"Government","preliminary_risk_category":"Medium Risk","retrofit_level":"No visible retrofit","address":"6327 NE 74th St","estimated_number_of_occupants":"1-10"},"geometry":{"type":"Point","coordinates":[-122.260798,47.682122]}},{"type":"Feature","properties":{"zip_code":"98104","no_stories":"3","confirmation_source":"Field Visit","city":"Seattle","year_built":"1900","state":"WA","neighborhood":"Pioneer Square/Chinatown International District","building_use":"Commercial/Office","preliminary_risk_category":"Medium Risk","retrofit_level":"Permitted Retrofit","address":"201 1st Ave S","estimated_number_of_occupants":"11-100"},"geometry":{"type":"Point","coordinates":[-122.334269,47.600711]}},{"type":"Feature","properties":{"zip_code":"98104","no_stories":"3","confirmation_source":"Google Street View","city":"Seattle","year_built":"1913","state":"WA","neighborhood":"Downtown","building_use":"Commercial/Residential","preliminary_risk_category":"Medium Risk","retrofit_level":"Permitted Retrofit","address":"600 Western Ave","estimated_number_of_occupants":"11-100"},"geometry":{"type":"Point","coordinates":[-122.335504,47.601996]}},{"type":"Feature","properties":{"zip_code":"98107","no_stories":"3","confirmation_source":"Permit Drawing Review","city":"Seattle","year_built":"1922","state":"WA","neighborhood":"Ballard","building_use":"Schools","preliminary_risk_category":"Critical Risk","retrofit_level":"Permitted Retrofit","address":"5800 15th Ave NW","estimated_number_of_occupants":"101+"},"geometry":{"type":"Point","coordinates":[-122.376217,47.671269]}},{"type":"Feature","properties":{"zip_code":"98119","no_stories":"1","confirmation_source":"Permit Drawing Review","city":"Seattle","year_built":"1925","state":"WA","neighborhood":"Queen Anne","building_use":"Schools","preliminary_risk_category":"Critical Risk","retrofit_level":"Permitted Retrofit","address":"3 W Cremora St","estimated_number_of_occupants":"11-100"},"geometry":{"type":"Point","coordinates":[-122.35805,47.649542]}},{"type":"Feature","properties":{"zip_code":"98104","no_stories":"4","confirmation_source":"Field Visit","city":"Seattle","year_built":"1902","state":"WA","neighborhood":"Pioneer Square/Chinatown International District","building_use":"Commercial/Office","preliminary_risk_category":"High Risk","retrofit_level":"Visible retrofit","address":"104 1st Ave S","estimated_number_of_occupants":"101+"},"geometry":{"type":"Point","coordinates":[-122.334109,47.601371]}},{"type":"Feature","properties":{"zip_code":"98105","no_stories":"4","confirmation_source":"Google Street View","city":"Seattle","year_built":"1909","state":"WA","neighborhood":"Univ Dist","building_use":"Commercial/Residential","preliminary_risk_category":"Medium Risk","retrofit_level":"Permitted Retrofit","address":"4346 University Way NE","estimated_number_of_occupants":"101+"},"geometry":{"type":"Point","coordinates":[-122.313139,47.661074]}},{"type":"Feature","properties":{"zip_code":"98109","no_stories":"1","confirmation_source":"Google Street View","city":"Seattle","year_built":"1931","state":"WA","neighborhood":"Cascade/Eastlake","building_use":"Office","preliminary_risk_category":"Medium Risk","retrofit_level":"No visible retrofit","address":"133 Dexter Ave N","estimated_number_of_occupants":"11-100"},"geometry":{"type":"Point","coordinates":[-122.342406,47.619545]}},{"type":"Feature","properties":{"zip_code":"98109","no_stories":"1","confirmation_source":"Google Street View","city":"Seattle","year_built":"1929","state":"WA","neighborhood":"Cascade/Eastlake","building_use":"Commercial","preliminary_risk_category":"Medium Risk","retrofit_level":"No visible retrofit","address":"427 9th Ave N","estimated_number_of_occupants":"11-100"},"geometry":{"type":"Point","coordinates":[-122.339757,47.622807]}},{"type":"Feature","properties":{"zip_code":"98121","no_stories":"1","confirmation_source":"Google Street View","city":"Seattle","year_built":"1929","state":"WA","neighborhood":"Cascade/Eastlake","building_use":"Commercial","preliminary_risk_category":"Medium Risk","retrofit_level":"Permitted Retrofit","address":"2022 Boren Ave","estimated_number_of_occupants":"101+"},"geometry":{"type":"Point","coordinates":[-122.334909,47.618221]}},{"type":"Feature","properties":{"zip_code":"98104","no_stories":"4","confirmation_source":"Google Street View-Rosettes","city":"Seattle","year_built":"1925","state":"WA","neighborhood":"First Hill","building_use":"Residential","preliminary_risk_category":"Medium Risk","retrofit_level":"Permitted Retrofit","address":"420 Terry Ave","estimated_number_of_occupants":"11-100"},"geometry":{"type":"Point","coordinates":[-122.322797,47.60509]}},{"type":"Feature","properties":{"zip_code":"98104","no_stories":"6","confirmation_source":"Google Street View","city":"Seattle","year_built":"1900","state":"WA","neighborhood":"Downtown","building_use":"Commercial/Office","preliminary_risk_category":"High Risk","retrofit_level":"Visible retrofit","address":"605 1st Ave","estimated_number_of_occupants":"101+"},"geometry":{"type":"Point","coordinates":[-122.334262,47.601977]}},{"type":"Feature","properties":{"zip_code":"98107","no_stories":"2","confirmation_source":"Field Visit","city":"Seattle","year_built":"1900","state":"WA","neighborhood":"Ballard","building_use":"Commercial/Office","preliminary_risk_category":"Medium Risk","retrofit_level":"No visible retrofit","address":"5348 Ballard Ave NW","estimated_number_of_occupants":"101+"},"geometry":{"type":"Point","coordinates":[-122.384559,47.667491]}},{"type":"Feature","properties":{"zip_code":"98107","no_stories":"3","confirmation_source":"Field Visit","city":"Seattle","year_built":"1909","state":"WA","neighborhood":"Ballard","building_use":"Commercial/Residential","preliminary_risk_category":"Medium Risk","retrofit_level":"No visible retrofit","address":"1903 NW Market St","estimated_number_of_occupants":"101+"},"geometry":{"type":"Point","coordinates":[-122.381738,47.668658]}},{"type":"Feature","properties":{"zip_code":"98115","no_stories":"1","confirmation_source":"Field Visit","city":"Seattle","year_built":"1940","state":"WA","neighborhood":"Green Lake","building_use":"Commercial","preliminary_risk_category":"Medium Risk","retrofit_level":"No visible retrofit","address":"6315 Roosevelt Way NE","estimated_number_of_occupants":"11-100"},"geometry":{"type":"Point","coordinates":[-122.317367,47.674614]}},{"type":"Feature","properties":{"zip_code":"98122","no_stories":"1","confirmation_source":"Field Visit","city":"Seattle","year_built":"1912","state":"WA","neighborhood":"Capitol Hill","building_use":"Commercial","preliminary_risk_category":"Medium Risk","retrofit_level":"No visible retrofit","address":"1515 Broadway","estimated_number_of_occupants":"11-100"},"geometry":{"type":"Point","coordinates":[-122.320802,47.614568]}},{"type":"Feature","properties":{"zip_code":"98118","no_stories":"1","confirmation_source":"Field Visit","city":"Seattle","year_built":"1914","state":"WA","neighborhood":"Columbia City","building_use":"Public Assembly","preliminary_risk_category":"High Risk","retrofit_level":"Permitted Retrofit","address":"4721 Rainier Ave S","estimated_number_of_occupants":"101+"},"geometry":{"type":"Point","coordinates":[-122.28641,47.560002]}},{"type":"Feature","properties":{"zip_code":"98107","no_stories":"1","confirmation_source":"Field Visit","city":"Seattle","year_built":"1928","state":"WA","neighborhood":"Ballard","building_use":"Commercial","preliminary_risk_category":"Medium Risk","retrofit_level":"No visible retrofit","address":"2032 NW Market St","estimated_number_of_occupants":"101+"},"geometry":{"type":"Point","coordinates":[-122.383801,47.668698]}},{"type":"Feature","properties":{"zip_code":"98105","no_stories":"4","confirmation_source":"Google Street View","city":"Seattle","year_built":"1926","state":"WA","neighborhood":"Univ Dist","building_use":"Residential","preliminary_risk_category":"Medium Risk","retrofit_level":"No visible retrofit","address":"5003 15th Ave NE","estimated_number_of_occupants":"11-100"},"geometry":{"type":"Point","coordinates":[-122.311947,47.665085]}},{"type":"Feature","properties":{"zip_code":"98122","no_stories":"1","confirmation_source":"Google Street View","city":"Seattle","year_built":"1900","state":"WA","neighborhood":"Madrona/Leschi","building_use":"Schools","preliminary_risk_category":"Critical Risk","retrofit_level":"Permitted Retrofit","address":"924 35th Ave","estimated_number_of_occupants":"101+"},"geometry":{"type":"Point","coordinates":[-122.288266,47.611012]}},{"type":"Feature","properties":{"zip_code":"98107","no_stories":"1","confirmation_source":"Field Visit","city":"Seattle","year_built":"1900","state":"WA","neighborhood":"Ballard","building_use":"Commercial","preliminary_risk_category":"Medium Risk","retrofit_level":"No visible retrofit","address":"5233 Ballard Ave NW","estimated_number_of_occupants":"11-100"},"geometry":{"type":"Point","coordinates":[-122.38299,47.666277]}},{"type":"Feature","properties":{"zip_code":"98104","no_stories":"2","confirmation_source":"Field Visit","city":"Seattle","year_built":"1886","state":"WA","neighborhood":"First Hill","building_use":"Public Assembly","preliminary_risk_category":"High Risk","retrofit_level":"No visible retrofit","address":"613 9th Ave","estimated_number_of_occupants":"101+"},"geometry":{"type":"Point","coordinates":[-122.325132,47.606002]}},{"type":"Feature","properties":{"zip_code":"98122","no_stories":"3","confirmation_source":"Photos from Previous Surveys","city":"Seattle","year_built":"1911","state":"WA","neighborhood":"Capitol Hill","building_use":"Other Mixed Uses","preliminary_risk_category":"Medium Risk","retrofit_level":"No visible retrofit","address":"713 E Pike St","estimated_number_of_occupants":"11-100"},"geometry":{"type":"Point","coordinates":[-122.322716,47.614062]}},{"type":"Feature","properties":{"zip_code":"98112","no_stories":"1","confirmation_source":"Field Visit","city":"Seattle","year_built":"1919","state":"WA","neighborhood":"Madison Park","building_use":"Commercial","preliminary_risk_category":"Medium Risk","retrofit_level":"No visible retrofit","address":"4230 E Madison St","estimated_number_of_occupants":"11-100"},"geometry":{"type":"Point","coordinates":[-122.277344,47.636253]}},{"type":"Feature","properties":{"zip_code":"98104","no_stories":"5","confirmation_source":"Field Visit","city":"Seattle","year_built":"1903","state":"WA","neighborhood":"Pioneer Square/Chinatown International District","building_use":"Other Mixed Uses","preliminary_risk_category":"High Risk","retrofit_level":"Visible retrofit","address":"77 S Washington St","estimated_number_of_occupants":"101+"},"geometry":{"type":"Point","coordinates":[-122.335293,47.600867]}},{"type":"Feature","properties":{"zip_code":"98122","no_stories":"4","confirmation_source":"Google Street View","city":"Seattle","year_built":"1925","state":"WA","neighborhood":"Central Area/Squire Park","building_use":"Residential","preliminary_risk_category":"Medium Risk","retrofit_level":"No visible retrofit","address":"1810 15th Ave","estimated_number_of_occupants":"11-100"},"geometry":{"type":"Point","coordinates":[-122.312776,47.61804]}},{"type":"Feature","properties":{"zip_code":"98134","no_stories":"3","confirmation_source":"Google Street View","city":"Seattle","year_built":"1910","state":"WA","neighborhood":"Duwamish/SODO","building_use":"Commercial/Office","preliminary_risk_category":"Medium Risk","retrofit_level":"Permitted Retrofit","address":"2724 6th Ave S","estimated_number_of_occupants":"11-100"},"geometry":{"type":"Point","coordinates":[-122.325988,47.578673]}},{"type":"Feature","properties":{"zip_code":"98121","no_stories":"1","confirmation_source":"Google Street View","city":"Seattle","year_built":"1920","state":"WA","neighborhood":"Belltown","building_use":"Commercial","preliminary_risk_category":"Medium Risk","retrofit_level":"Permitted Retrofit","address":"2218 1st Ave","estimated_number_of_occupants":"101+"},"geometry":{"type":"Point","coordinates":[-122.345964,47.613039]}},{"type":"Feature","properties":{"zip_code":"98101","no_stories":"4","confirmation_source":"Photos from Previous Surveys","city":"Seattle","year_built":"1925","state":"WA","neighborhood":"First Hill","building_use":"Residential","preliminary_risk_category":"Medium Risk","retrofit_level":"No visible retrofit","address":"1420 Boren Ave","estimated_number_of_occupants":"11-100"},"geometry":{"type":"Point","coordinates":[-122.32854,47.613037]}},{"type":"Feature","properties":{"zip_code":"98108","no_stories":"2","confirmation_source":"Sandborn Insurance Maps","city":"Seattle","year_built":"1914","state":"WA","neighborhood":"Georgetown","building_use":"Commercial/Residential","preliminary_risk_category":"Medium Risk","retrofit_level":"No visible retrofit","address":"1205 S Vale St","estimated_number_of_occupants":"101+"},"geometry":{"type":"Point","coordinates":[-122.317188,47.549163]}},{"type":"Feature","properties":{"zip_code":"98104","no_stories":"3","confirmation_source":"Field Visit","city":"Seattle","year_built":"1890","state":"WA","neighborhood":"Pioneer Square/Chinatown International District","building_use":"Commercial","preliminary_risk_category":"Medium Risk","retrofit_level":"Permitted Retrofit","address":"109 Yesler Way","estimated_number_of_occupants":"11-100"},"geometry":{"type":"Point","coordinates":[-122.333435,47.601747]}},{"type":"Feature","properties":{"zip_code":"98109","no_stories":"4","confirmation_source":"Google Street View","city":"Seattle","year_built":"1907","state":"WA","neighborhood":"Queen Anne","building_use":"Residential","preliminary_risk_category":"Medium Risk","retrofit_level":"No visible retrofit","address":"125 Warren Ave N","estimated_number_of_occupants":"11-100"},"geometry":{"type":"Point","coordinates":[-122.354152,47.61951]}},{"type":"Feature","properties":{"zip_code":"98144","no_stories":"1","confirmation_source":"Google Street View","city":"Seattle","year_built":"1924","state":"WA","neighborhood":"Judkins Park","building_use":"Office","preliminary_risk_category":"Medium Risk","retrofit_level":"No visible retrofit","address":"1723 S Jackson St","estimated_number_of_occupants":"11-100"},"geometry":{"type":"Point","coordinates":[-122.309185,47.599242]}},{"type":"Feature","properties":{"zip_code":"98102","no_stories":"1","confirmation_source":"Google Street View","city":"Seattle","year_built":"1921","state":"WA","neighborhood":"Montlake/Portage Bay","building_use":"Commercial","preliminary_risk_category":"Medium Risk","retrofit_level":"No visible retrofit","address":"2409 10th Ave E","estimated_number_of_occupants":"11-100"},"geometry":{"type":"Point","coordinates":[-122.32008,47.641731]}},{"type":"Feature","properties":{"zip_code":"98104","no_stories":"3","confirmation_source":"Field Visit","city":"Seattle","year_built":"1900","state":"WA","neighborhood":"Pioneer Square/Chinatown International District","building_use":"Commercial/Residential","preliminary_risk_category":"Medium Risk","retrofit_level":"Visible retrofit","address":"213 1st Ave S","estimated_number_of_occupants":"11-100"},"geometry":{"type":"Point","coordinates":[-122.334269,47.600341]}},{"type":"Feature","properties":{"zip_code":"98121","no_stories":"2","confirmation_source":"Google Street View","city":"Seattle","year_built":"1902","state":"WA","neighborhood":"Belltown","building_use":"Commercial/Office","preliminary_risk_category":"Medium Risk","retrofit_level":"Substantial Alteration","address":"2819 Elliott Ave","estimated_number_of_occupants":"101+"},"geometry":{"type":"Point","coordinates":[-122.354244,47.615585]}},{"type":"Feature","properties":{"zip_code":"98109","no_stories":"2","confirmation_source":"Google Street View","city":"Seattle","year_built":"1920","state":"WA","neighborhood":"Cascade/Eastlake","building_use":"Commercial/Office","preliminary_risk_category":"Medium Risk","retrofit_level":"Substantial Alteration","address":"900 Thomas St","estimated_number_of_occupants":"11-100"},"geometry":{"type":"Point","coordinates":[-122.33939,47.62088]}},{"type":"Feature","properties":{"zip_code":"98109","no_stories":"1","confirmation_source":"Google Street View","city":"Seattle","year_built":"1900","state":"WA","neighborhood":"Queen Anne","building_use":"Commercial","preliminary_risk_category":"Medium Risk","retrofit_level":"No visible retrofit","address":"823 5th Ave N","estimated_number_of_occupants":"11-100"},"geometry":{"type":"Point","coordinates":[-122.34756,47.627014]}},{"type":"Feature","properties":{"zip_code":"98109","no_stories":"2","confirmation_source":"White Card Permit Records","city":"Seattle","year_built":"1927","state":"WA","neighborhood":"Cascade/Eastlake","building_use":"Commercial","preliminary_risk_category":"Medium Risk","retrofit_level":"No visible retrofit","address":"117 Yale Ave N","estimated_number_of_occupants":"11-100"},"geometry":{"type":"Point","coordinates":[-122.330424,47.619148]}},{"type":"Feature","properties":{"zip_code":"98122","no_stories":"1","confirmation_source":"Permit Drawing Review","city":"Seattle","year_built":"1916","state":"WA","neighborhood":"Capitol Hill","building_use":"Public Assembly","preliminary_risk_category":"High Risk","retrofit_level":"Substantial Alteration","address":"925 E Pike St","estimated_number_of_occupants":"101+"},"geometry":{"type":"Point","coordinates":[-122.319747,47.614085]}},{"type":"Feature","properties":{"zip_code":"98105","no_stories":"3","confirmation_source":"University of Washington Facilities List","city":"Seattle","year_built":"1947","state":"WA","neighborhood":"Univ Dist","building_use":"Public Assembly","preliminary_risk_category":"Medium Risk","retrofit_level":"No visible retrofit","address":"1915 NE Chelan Ln","estimated_number_of_occupants":"11-100"},"geometry":null},{"type":"Feature","properties":{"zip_code":"98116","no_stories":"1","confirmation_source":"Field Visit","city":"Seattle","year_built":"1934","state":"WA","neighborhood":"West Seattle Junction/Genesee Hill","building_use":"Commercial","preliminary_risk_category":"Medium Risk","retrofit_level":"No visible retrofit","address":"3401 California Ave SW","estimated_number_of_occupants":"11-100"},"geometry":{"type":"Point","coordinates":[-122.386761,47.573676]}},{"type":"Feature","properties":{"zip_code":"98119","no_stories":"4","confirmation_source":"Google Street View","city":"Seattle","year_built":"1921","state":"WA","neighborhood":"Queen Anne","building_use":"Residential","preliminary_risk_category":"Medium Risk","retrofit_level":"No visible retrofit","address":"100 W Highland Dr","estimated_number_of_occupants":"101+"},"geometry":{"type":"Point","coordinates":[-122.358574,47.629555]}},{"type":"Feature","properties":{"zip_code":"98108","no_stories":"1","confirmation_source":"Sandborn Insurance Maps","city":"Seattle","year_built":"1926","state":"WA","neighborhood":"Duwamish/SODO","building_use":"Office","preliminary_risk_category":"Medium Risk","retrofit_level":"No visible retrofit","address":"4000 Airport Way S","estimated_number_of_occupants":"1-10"},"geometry":{"type":"Point","coordinates":[-122.322679,47.567867]}},{"type":"Feature","properties":{"zip_code":"98101","no_stories":"2","confirmation_source":"Permit Drawing Review","city":"Seattle","year_built":"1900","state":"WA","neighborhood":"Downtown","building_use":"Public Assembly","preliminary_risk_category":"High Risk","retrofit_level":"Substantial Alteration","address":"1423 1st Ave","estimated_number_of_occupants":"101+"},"geometry":{"type":"Point","coordinates":[-122.339849,47.608606]}},{"type":"Feature","properties":{"zip_code":"98102","no_stories":"5","confirmation_source":"Google Street View","city":"Seattle","year_built":"1908","state":"WA","neighborhood":"Capitol Hill","building_use":"Residential","preliminary_risk_category":"Medium Risk","retrofit_level":"Visible retrofit","address":"305 Bellevue Ave E","estimated_number_of_occupants":"101+"},"geometry":{"type":"Point","coordinates":[-122.326597,47.621158]}},{"type":"Feature","properties":{"zip_code":"98104","no_stories":"4","confirmation_source":"Google Street View","city":"Seattle","year_built":"1902","state":"WA","neighborhood":"Pioneer Square/Chinatown International District","building_use":"Commercial","preliminary_risk_category":"High Risk","retrofit_level":"No visible retrofit","address":"315 3rd Ave S","estimated_number_of_occupants":"101+"},"geometry":{"type":"Point","coordinates":[-122.330281,47.599508]}},{"type":"Feature","properties":{"zip_code":"98144","no_stories":"1","confirmation_source":"Google Street View","city":"Seattle","year_built":"1920","state":"WA","neighborhood":"Pioneer Square/Chinatown International District","building_use":"Commercial","preliminary_risk_category":"Medium Risk","retrofit_level":"No visible retrofit","address":"303 12th Ave S","estimated_number_of_occupants":"11-100"},"geometry":{"type":"Point","coordinates":[-122.317242,47.59976]}},{"type":"Feature","properties":{"zip_code":"98136","no_stories":"1","confirmation_source":"Field Visit","city":"Seattle","year_built":"1940","state":"WA","neighborhood":"Fauntleroy/Seaview","building_use":"Government","preliminary_risk_category":"Medium Risk","retrofit_level":"No visible retrofit","address":"8603 Fauntleroy Way SW","estimated_number_of_occupants":"11-100"},"geometry":{"type":"Point","coordinates":[-122.392715,47.529177]}},{"type":"Feature","properties":{"zip_code":"98103","no_stories":"1","confirmation_source":"Google Street View","city":"Seattle","year_built":"1928","state":"WA","neighborhood":"Green Lake","building_use":"Public Assembly","preliminary_risk_category":"High Risk","retrofit_level":"No visible retrofit","address":"2253 N 56th St","estimated_number_of_occupants":"101+"},"geometry":{"type":"Point","coordinates":[-122.331522,47.669071]}},{"type":"Feature","properties":{"zip_code":"98104","no_stories":"2","confirmation_source":"Google Street View","city":"Seattle","year_built":"1932","state":"WA","neighborhood":"Pioneer Square/Chinatown International District","building_use":"Commercial/Office","preliminary_risk_category":"Medium Risk","retrofit_level":"No visible retrofit","address":"600 S Jackson St","estimated_number_of_occupants":"101+"},"geometry":{"type":"Point","coordinates":[-122.325987,47.599202]}},{"type":"Feature","properties":{"zip_code":"98105","no_stories":"3","confirmation_source":"Google Street View","city":"Seattle","year_built":"1929","state":"WA","neighborhood":"Univ Dist","building_use":"Residential","preliminary_risk_category":"Medium Risk","retrofit_level":"Permitted Retrofit","address":"4503 17th Ave NE","estimated_number_of_occupants":"11-100"},"geometry":{"type":"Point","coordinates":[-122.309684,47.661569]}},{"type":"Feature","properties":{"zip_code":"98122","no_stories":"2","confirmation_source":"Field Visit","city":"Seattle","year_built":"1925","state":"WA","neighborhood":"Capitol Hill","building_use":"Public Assembly","preliminary_risk_category":"High Risk","retrofit_level":"No visible retrofit","address":"900 E Pine St","estimated_number_of_occupants":"101+"},"geometry":{"type":"Point","coordinates":[-122.32038,47.615253]}},{"type":"Feature","properties":{"zip_code":"98107","no_stories":"2","confirmation_source":"Field Visit","city":"Seattle","year_built":"1904","state":"WA","neighborhood":"Ballard","building_use":"Commercial/Office","preliminary_risk_category":"Medium Risk","retrofit_level":"Substantial Alteration","address":"5405 Leary Ave NW","estimated_number_of_occupants":"101+"},"geometry":{"type":"Point","coordinates":[-122.38255,47.667026]}},{"type":"Feature","properties":{"zip_code":"98104","no_stories":"4","confirmation_source":"Google Street View","city":"Seattle","year_built":"1906","state":"WA","neighborhood":"Downtown","building_use":"Commercial","preliminary_risk_category":"High Risk","retrofit_level":"Substantial Alteration","address":"809 Western Ave","estimated_number_of_occupants":"11-100"},"geometry":{"type":"Point","coordinates":[-122.336378,47.603156]}},{"type":"Feature","properties":{"zip_code":"98104","no_stories":"2","confirmation_source":"Field Visit","city":"Seattle","year_built":"1917","state":"WA","neighborhood":"Pioneer Square/Chinatown International District","building_use":"Commercial","preliminary_risk_category":"Medium Risk","retrofit_level":"No visible retrofit","address":"650 S Jackson St","estimated_number_of_occupants":"11-100"},"geometry":{"type":"Point","coordinates":[-122.324683,47.599191]}},{"type":"Feature","properties":{"zip_code":"98107","no_stories":"1","confirmation_source":"Field Visit","city":"Seattle","year_built":"1911","state":"WA","neighborhood":"Ballard","building_use":"Commercial","preliminary_risk_category":"Medium Risk","retrofit_level":"No visible retrofit","address":"2318 NW Market St","estimated_number_of_occupants":"101+"},"geometry":{"type":"Point","coordinates":[-122.387146,47.668701]}},{"type":"Feature","properties":{"zip_code":"98119","no_stories":"4","confirmation_source":"Google Street View","city":"Seattle","year_built":"1917","state":"WA","neighborhood":"Queen Anne","building_use":"Residential","preliminary_risk_category":"Medium Risk","retrofit_level":"No visible retrofit","address":"621 W Galer St","estimated_number_of_occupants":"11-100"},"geometry":{"type":"Point","coordinates":[-122.365342,47.632331]}},{"type":"Feature","properties":{"zip_code":"98121","no_stories":"3","confirmation_source":"Google Street View","city":"Seattle","year_built":"1918","state":"WA","neighborhood":"Belltown","building_use":"Commercial/Office","preliminary_risk_category":"Medium Risk","retrofit_level":"Visible retrofit","address":"2030 1st Ave","estimated_number_of_occupants":"101+"},"geometry":{"type":"Point","coordinates":[-122.343645,47.611653]}},{"type":"Feature","properties":{"zip_code":"98103","no_stories":"3","confirmation_source":"Photos from Previous Surveys","city":"Seattle","year_built":"1909","state":"WA","neighborhood":"Fremont","building_use":"Public Assembly","preliminary_risk_category":"High Risk","retrofit_level":"Permitted Retrofit","address":"619 N 36th St","estimated_number_of_occupants":"101+"},"geometry":{"type":"Point","coordinates":[-122.350402,47.651417]}},{"type":"Feature","properties":{"zip_code":"98108","no_stories":"3","confirmation_source":"Permit Drawing Review","city":"Seattle","year_built":"1909","state":"WA","neighborhood":"South Park","building_use":"Schools","preliminary_risk_category":"Critical Risk","retrofit_level":"Permitted Retrofit","address":"723 S Concord St","estimated_number_of_occupants":"101+"},"geometry":{"type":"Point","coordinates":[-122.324309,47.523918]}},{"type":"Feature","properties":{"zip_code":"98122","no_stories":"3","confirmation_source":"Google Street View","city":"Seattle","year_built":"1908","state":"WA","neighborhood":"Capitol Hill","building_use":"Residential","preliminary_risk_category":"Medium Risk","retrofit_level":"No visible retrofit","address":"1620 13th Ave","estimated_number_of_occupants":"11-100"},"geometry":{"type":"Point","coordinates":[-122.315568,47.615937]}},{"type":"Feature","properties":{"zip_code":"98102","no_stories":"3","confirmation_source":"Sandborn Insurance Maps","city":"Seattle","year_built":"1921","state":"WA","neighborhood":"North Capitol Hill","building_use":"Schools","preliminary_risk_category":"Critical Risk","retrofit_level":"Permitted Retrofit","address":"710 E Roy St","estimated_number_of_occupants":"101+"},"geometry":{"type":"Point","coordinates":[-122.322972,47.625113]}},{"type":"Feature","properties":{"zip_code":"98104","no_stories":"3","confirmation_source":"Field Visit","city":"Seattle","year_built":"1900","state":"WA","neighborhood":"Pioneer Square/Chinatown International District","building_use":"Commercial/Residential","preliminary_risk_category":"Medium Risk","retrofit_level":"Permitted Retrofit","address":"68 S Washington St","estimated_number_of_occupants":"11-100"},"geometry":{"type":"Point","coordinates":[-122.33519,47.60087]}},{"type":"Feature","properties":{"zip_code":"98104","no_stories":"5","confirmation_source":"Google Street View","city":"Seattle","year_built":"1900","state":"WA","neighborhood":"Downtown","building_use":"Commercial/Office","preliminary_risk_category":"Medium Risk","retrofit_level":"Permitted Retrofit","address":"524 2nd Ave","estimated_number_of_occupants":"101+"},"geometry":{"type":"Point","coordinates":[-122.332369,47.602126]}},{"type":"Feature","properties":{"zip_code":"98116","no_stories":"2","confirmation_source":"Field Visit","city":"Seattle","year_built":"1920","state":"WA","neighborhood":"West Seattle Junction/Genesee Hill","building_use":"Schools","preliminary_risk_category":"Critical Risk","retrofit_level":"Substantial Alteration","address":"3000 California Ave SW","estimated_number_of_occupants":"101+"},"geometry":{"type":"Point","coordinates":[-122.386713,47.57712]}},{"type":"Feature","properties":{"zip_code":"98121","no_stories":"4","confirmation_source":"Google Street View","city":"Seattle","year_built":"1922","state":"WA","neighborhood":"Cascade/Eastlake","building_use":"Residential","preliminary_risk_category":"Medium Risk","retrofit_level":"No visible retrofit","address":"2132 5th Ave","estimated_number_of_occupants":"11-100"},"geometry":{"type":"Point","coordinates":[-122.341554,47.615148]}},{"type":"Feature","properties":{"zip_code":"98102","no_stories":"3","confirmation_source":"Field Visit","city":"Seattle","year_built":"1909","state":"WA","neighborhood":"Capitol Hill","building_use":"Residential","preliminary_risk_category":"Medium Risk","retrofit_level":"No visible retrofit","address":"215 13th Ave E","estimated_number_of_occupants":"11-100"},"geometry":{"type":"Point","coordinates":[-122.315634,47.620435]}},{"type":"Feature","properties":{"zip_code":"98122","no_stories":"4","confirmation_source":"Google Street View","city":"Seattle","year_built":"1916","state":"WA","neighborhood":"Capitol Hill","building_use":"Residential","preliminary_risk_category":"Medium Risk","retrofit_level":"Visible retrofit","address":"1520 Melrose Ave","estimated_number_of_occupants":"11-100"},"geometry":{"type":"Point","coordinates":[-122.327915,47.614661]}},{"type":"Feature","properties":{"zip_code":"98109","no_stories":"4","confirmation_source":"Google Street View","city":"Seattle","year_built":"1916","state":"WA","neighborhood":"Cascade/Eastlake","building_use":"Residential","preliminary_risk_category":"Medium Risk","retrofit_level":"Visible retrofit","address":"133 Pontius Ave N","estimated_number_of_occupants":"11-100"},"geometry":null},{"type":"Feature","properties":{"zip_code":"98101","no_stories":"4","confirmation_source":"Permit Drawing Review","city":"Seattle","year_built":"1942","state":"WA","neighborhood":"Downtown","building_use":"Commercial/Residential","preliminary_risk_category":"Medium Risk","retrofit_level":"Substantial Alteration","address":"1513 1st Ave","estimated_number_of_occupants":"101+"},"geometry":{"type":"Point","coordinates":[-122.340481,47.60931]}},{"type":"Feature","properties":{"zip_code":"98107","no_stories":"2","confirmation_source":"Permit Drawing Review","city":"Seattle","year_built":"1902","state":"WA","neighborhood":"Ballard","building_use":"Commercial","preliminary_risk_category":"Medium Risk","retrofit_level":"Permitted Retrofit","address":"5221 Ballard Ave NW","estimated_number_of_occupants":"101+"},"geometry":{"type":"Point","coordinates":[-122.382675,47.665998]}},{"type":"Feature","properties":{"zip_code":"98101","no_stories":"3","confirmation_source":"Permit Drawing Review","city":"Seattle","year_built":"1923","state":"WA","neighborhood":"Cascade/Eastlake","building_use":"Commercial/Office","preliminary_risk_category":"Medium Risk","retrofit_level":"No visible retrofit","address":"1933 5th Ave","estimated_number_of_occupants":"101+"},"geometry":{"type":"Point","coordinates":[-122.339069,47.613625]}},{"type":"Feature","properties":{"zip_code":"98121","no_stories":"3","confirmation_source":"Photos from Previous Surveys","city":"Seattle","year_built":"1911","state":"WA","neighborhood":"Belltown","building_use":"Commercial/Office","preliminary_risk_category":"Medium Risk","retrofit_level":"Substantial Alteration","address":"11 Vine St","estimated_number_of_occupants":"101+"},"geometry":{"type":"Point","coordinates":[-122.351628,47.613742]}},{"type":"Feature","properties":{"zip_code":"98103","no_stories":"3","confirmation_source":"Google Street View","city":"Seattle","year_built":"1924","state":"WA","neighborhood":"Wallingford","building_use":"Residential","preliminary_risk_category":"Medium Risk","retrofit_level":"No visible retrofit","address":"4136 Meridian Ave N","estimated_number_of_occupants":"11-100"},"geometry":{"type":"Point","coordinates":[-122.333797,47.657681]}},{"type":"Feature","properties":{"zip_code":"98122","no_stories":"2","confirmation_source":"Google Street View","city":"Seattle","year_built":"1919","state":"WA","neighborhood":"Capitol Hill","building_use":"Residential","preliminary_risk_category":"Medium Risk","retrofit_level":"No visible retrofit","address":"1620 14th Ave","estimated_number_of_occupants":"11-100"},"geometry":{"type":"Point","coordinates":[-122.314248,47.615949]}},{"type":"Feature","properties":{"zip_code":"98107","no_stories":"1","confirmation_source":"Field Visit","city":"Seattle","year_built":"1900","state":"WA","neighborhood":"Ballard","building_use":"Commercial","preliminary_risk_category":"Medium Risk","retrofit_level":"Visible retrofit","address":"5130 Ballard Ave NW","estimated_number_of_occupants":"101+"},"geometry":{"type":"Point","coordinates":[-122.381856,47.66527]}},{"type":"Feature","properties":{"zip_code":"98122","no_stories":"2","confirmation_source":"Photos from Previous Surveys","city":"Seattle","year_built":"1913","state":"WA","neighborhood":"Capitol Hill","building_use":"Commercial","preliminary_risk_category":"Medium Risk","retrofit_level":"No visible retrofit","address":"1424 10th Ave","estimated_number_of_occupants":"11-100"},"geometry":{"type":"Point","coordinates":[-122.319439,47.613607]}},{"type":"Feature","properties":{"zip_code":"98104","no_stories":"5","confirmation_source":"Google Street View","city":"Seattle","year_built":"1905","state":"WA","neighborhood":"Duwamish/SODO","building_use":"Other Mixed Uses","preliminary_risk_category":"High Risk","retrofit_level":"Permitted Retrofit","address":"97 S Jackson St","estimated_number_of_occupants":"101+"},"geometry":{"type":"Point","coordinates":[-122.334603,47.599222]}},{"type":"Feature","properties":{"zip_code":"98109","no_stories":"1","confirmation_source":"Field Visit","city":"Seattle","year_built":"1926","state":"WA","neighborhood":"Queen Anne","building_use":"Commercial","preliminary_risk_category":"Medium Risk","retrofit_level":"No visible retrofit","address":"513 Queen Anne Ave N","estimated_number_of_occupants":"11-100"},"geometry":{"type":"Point","coordinates":[-122.356719,47.623785]}},{"type":"Feature","properties":{"zip_code":"98134","no_stories":"2","confirmation_source":"Permit Drawing Review","city":"Seattle","year_built":"1914","state":"WA","neighborhood":"Duwamish/SODO","building_use":"Public Assembly","preliminary_risk_category":"High Risk","retrofit_level":"No visible retrofit","address":"1201 1st Ave S","estimated_number_of_occupants":"101+"},"geometry":{"type":"Point","coordinates":[-122.334235,47.591769]}},{"type":"Feature","properties":{"zip_code":"98102","no_stories":"4","confirmation_source":"Google Street View","city":"Seattle","year_built":"1929","state":"WA","neighborhood":"Capitol Hill","building_use":"Residential","preliminary_risk_category":"Medium Risk","retrofit_level":"No visible retrofit","address":"333 Summit Ave E","estimated_number_of_occupants":"11-100"},"geometry":{"type":"Point","coordinates":[-122.325332,47.621821]}},{"type":"Feature","properties":{"zip_code":"98144","no_stories":"1","confirmation_source":"Sandborn Insurance Maps","city":"Seattle","year_built":"1947","state":"WA","neighborhood":"Mt. Baker/North Rainier","building_use":"Public Assembly","preliminary_risk_category":"High Risk","retrofit_level":"No visible retrofit","address":"1501 32nd Ave S","estimated_number_of_occupants":"101+"},"geometry":null},{"type":"Feature","properties":{"zip_code":"98104","no_stories":"3","confirmation_source":"Google Street View-Rosettes","city":"Seattle","year_built":"1890","state":"WA","neighborhood":"Pioneer Square/Chinatown International District","building_use":"Commercial","preliminary_risk_category":"Medium Risk","retrofit_level":"Visible retrofit","address":"111 Yesler Way","estimated_number_of_occupants":"11-100"},"geometry":{"type":"Point","coordinates":[-122.333196,47.601744]}},{"type":"Feature","properties":{"zip_code":"98122","no_stories":"2","confirmation_source":"Photos from Previous Surveys","city":"Seattle","year_built":"1910","state":"WA","neighborhood":"Capitol Hill","building_use":"Commercial","preliminary_risk_category":"Medium Risk","retrofit_level":"Permitted Retrofit","address":"517 E Pike St","estimated_number_of_occupants":"101+"},"geometry":{"type":"Point","coordinates":[-122.324782,47.614089]}},{"type":"Feature","properties":{"zip_code":"98122","no_stories":"3","confirmation_source":"Google Street View","city":"Seattle","year_built":"1908","state":"WA","neighborhood":"First Hill","building_use":"Commercial/Residential","preliminary_risk_category":"Medium Risk","retrofit_level":"No visible retrofit","address":"510 Broadway","estimated_number_of_occupants":"11-100"},"geometry":{"type":"Point","coordinates":[-122.320757,47.606815]}},{"type":"Feature","properties":{"zip_code":"98104","no_stories":"6","confirmation_source":"Google Street View","city":"Seattle","year_built":"1907","state":"WA","neighborhood":"Downtown","building_use":"Public Assembly","preliminary_risk_category":"High Risk","retrofit_level":"No visible retrofit","address":"810 4th Ave","estimated_number_of_occupants":"101+"},"geometry":{"type":"Point","coordinates":[-122.331924,47.605021]}},{"type":"Feature","properties":{"zip_code":"98105","no_stories":"3","confirmation_source":"Field Visit","city":"Seattle","year_built":"1928","state":"WA","neighborhood":"Univ Dist","building_use":"Residential","preliminary_risk_category":"Medium Risk","retrofit_level":"No visible retrofit","address":"4235 Brooklyn Ave NE","estimated_number_of_occupants":"11-100"},"geometry":{"type":"Point","coordinates":[-122.314337,47.659398]}},{"type":"Feature","properties":{"zip_code":"98103","no_stories":"2","confirmation_source":"Google Street View","city":"Seattle","year_built":"1926","state":"WA","neighborhood":"Wallingford","building_use":"Commercial/Residential","preliminary_risk_category":"Medium Risk","retrofit_level":"No visible retrofit","address":"1723 N 45th St","estimated_number_of_occupants":"101+"},"geometry":{"type":"Point","coordinates":[-122.336436,47.661381]}},{"type":"Feature","properties":{"zip_code":"98121","no_stories":"1","confirmation_source":"Google Street View","city":"Seattle","year_built":"1920","state":"WA","neighborhood":"Cascade/Eastlake","building_use":"Office","preliminary_risk_category":"Medium Risk","retrofit_level":"Permitted Retrofit","address":"2027 5th Ave","estimated_number_of_occupants":"11-100"},"geometry":{"type":"Point","coordinates":[-122.340189,47.61428]}},{"type":"Feature","properties":{"zip_code":"98122","no_stories":"1","confirmation_source":"Google Street View","city":"Seattle","year_built":"1930","state":"WA","neighborhood":"Central Area/Squire Park","building_use":"Commercial","preliminary_risk_category":"Medium Risk","retrofit_level":"Permitted Retrofit","address":"2018 E Union St","estimated_number_of_occupants":"101+"},"geometry":{"type":"Point","coordinates":[-122.305246,47.612916]}},{"type":"Feature","properties":{"zip_code":"98108","no_stories":"2","confirmation_source":"Google Street View","city":"Seattle","year_built":"1905","state":"WA","neighborhood":"Georgetown","building_use":"Commercial","preliminary_risk_category":"Medium Risk","retrofit_level":"No visible retrofit","address":"5813 Airport Way S","estimated_number_of_occupants":"101+"},"geometry":{"type":"Point","coordinates":[-122.318205,47.550552]}},{"type":"Feature","properties":{"zip_code":"98122","no_stories":"4","confirmation_source":"Google Street View","city":"Seattle","year_built":"1915","state":"WA","neighborhood":"Capitol Hill","building_use":"Residential","preliminary_risk_category":"Medium Risk","retrofit_level":"No visible retrofit","address":"1414 E Denny Way","estimated_number_of_occupants":"11-100"},"geometry":{"type":"Point","coordinates":[-122.313687,47.618768]}},{"type":"Feature","properties":{"zip_code":"98115","no_stories":"2","confirmation_source":"Google Street View","city":"Seattle","year_built":"1912","state":"WA","neighborhood":"Green Lake","building_use":"Commercial/Residential","preliminary_risk_category":"Medium Risk","retrofit_level":"No visible retrofit","address":"7200 Woodlawn Ave NE","estimated_number_of_occupants":"11-100"},"geometry":{"type":"Point","coordinates":[-122.324764,47.680617]}},{"type":"Feature","properties":{"zip_code":"98122","no_stories":"2","confirmation_source":"Photos from Previous Surveys","city":"Seattle","year_built":"1907","state":"WA","neighborhood":"Capitol Hill","building_use":"Commercial","preliminary_risk_category":"Medium Risk","retrofit_level":"No visible retrofit","address":"1423 10th Ave","estimated_number_of_occupants":"101+"},"geometry":{"type":"Point","coordinates":[-122.319438,47.613578]}},{"type":"Feature","properties":{"zip_code":"98104","no_stories":"3","confirmation_source":"Google Street View","city":"Seattle","year_built":"1910","state":"WA","neighborhood":"Duwamish/SODO","building_use":"Commercial/Office","preliminary_risk_category":"Medium Risk","retrofit_level":"No visible retrofit","address":"553 1st Ave S","estimated_number_of_occupants":"11-100"},"geometry":{"type":"Point","coordinates":[-122.334265,47.596819]}},{"type":"Feature","properties":{"zip_code":"98117","no_stories":"1","confirmation_source":"Google Street View","city":"Seattle","year_built":"1950","state":"WA","neighborhood":"Whittier Heights","building_use":"Commercial","preliminary_risk_category":"Medium Risk","retrofit_level":"No visible retrofit","address":"6757 8th Ave NW","estimated_number_of_occupants":"11-100"},"geometry":{"type":"Point","coordinates":[-122.366118,47.679337]}},{"type":"Feature","properties":{"zip_code":"98104","no_stories":"2","confirmation_source":"Google Street View","city":"Seattle","year_built":"1924","state":"WA","neighborhood":"Pioneer Square/Chinatown International District","building_use":"Commercial","preliminary_risk_category":"Medium Risk","retrofit_level":"No visible retrofit","address":"925 S King St","estimated_number_of_occupants":"101+"},"geometry":{"type":"Point","coordinates":[-122.319888,47.598358]}},{"type":"Feature","properties":{"zip_code":"98121","no_stories":"4","confirmation_source":"Google Street View","city":"Seattle","year_built":"1900","state":"WA","neighborhood":"Belltown","building_use":"Commercial/Residential","preliminary_risk_category":"Medium Risk","retrofit_level":"Visible retrofit","address":"2201 1st Ave","estimated_number_of_occupants":"101+"},"geometry":{"type":"Point","coordinates":[-122.345413,47.612709]}},{"type":"Feature","properties":{"zip_code":"98122","no_stories":"4","confirmation_source":"Google Street View","city":"Seattle","year_built":"1916","state":"WA","neighborhood":"Capitol Hill","building_use":"Residential","preliminary_risk_category":"Medium Risk","retrofit_level":"No visible retrofit","address":"1628 Bellevue Ave","estimated_number_of_occupants":"11-100"},"geometry":{"type":"Point","coordinates":[-122.326808,47.616054]}},{"type":"Feature","properties":{"zip_code":"98121","no_stories":"3","confirmation_source":"Google Street View","city":"Seattle","year_built":"1923","state":"WA","neighborhood":"Belltown","building_use":"Residential","preliminary_risk_category":"Medium Risk","retrofit_level":"Visible retrofit","address":"2408 2nd Ave","estimated_number_of_occupants":"101+"},"geometry":{"type":"Point","coordinates":[-122.347121,47.614895]}},{"type":"Feature","properties":{"zip_code":"98108","no_stories":"2","confirmation_source":"Google Street View","city":"Seattle","year_built":"1908","state":"WA","neighborhood":"Duwamish/SODO","building_use":"Other Mixed Uses","preliminary_risk_category":"Medium Risk","retrofit_level":"No visible retrofit","address":"3909 Airport Way S","estimated_number_of_occupants":"11-100"},"geometry":{"type":"Point","coordinates":[-122.322694,47.568567]}},{"type":"Feature","properties":{"zip_code":"98119","no_stories":"3","confirmation_source":"Google Street View","city":"Seattle","year_built":"1921","state":"WA","neighborhood":"Queen Anne","building_use":"Industrial","preliminary_risk_category":"Medium Risk","retrofit_level":"Substantial Alteration","address":"1529 4th Ave W","estimated_number_of_occupants":"11-100"},"geometry":{"type":"Point","coordinates":[-122.362362,47.633284]}},{"type":"Feature","properties":{"zip_code":"98117","no_stories":"1","confirmation_source":"Field Visit","city":"Seattle","year_built":"1930","state":"WA","neighborhood":"Sunset Hill/Loyal Heights","building_use":"Public Assembly","preliminary_risk_category":"Medium Risk","retrofit_level":"Permitted Retrofit","address":"8498 Seaview Pl NW","estimated_number_of_occupants":"11-100"},"geometry":{"type":"Point","coordinates":[-122.401967,47.690611]}},{"type":"Feature","properties":{"zip_code":"98109","no_stories":"3","confirmation_source":"Field Visit","city":"Seattle","year_built":"1926","state":"WA","neighborhood":"Cascade/Eastlake","building_use":"Residential","preliminary_risk_category":"Medium Risk","retrofit_level":"No visible retrofit","address":"603 Pontius Ave N","estimated_number_of_occupants":"11-100"},"geometry":{"type":"Point","coordinates":[-122.331745,47.624433]}},{"type":"Feature","properties":{"zip_code":"98122","no_stories":"2","confirmation_source":"Google Street View","city":"Seattle","year_built":"1923","state":"WA","neighborhood":"First Hill","building_use":"Commercial/Office","preliminary_risk_category":"Medium Risk","retrofit_level":"No visible retrofit","address":"900 12th Ave","estimated_number_of_occupants":"11-100"},"geometry":{"type":"Point","coordinates":[-122.316798,47.610565]}},{"type":"Feature","properties":{"zip_code":"98104","no_stories":"5","confirmation_source":"Field Visit","city":"Seattle","year_built":"1900","state":"WA","neighborhood":"Pioneer Square/Chinatown International District","building_use":"Commercial/Office","preliminary_risk_category":"High Risk","retrofit_level":"Substantial Alteration","address":"220 2nd Ave S","estimated_number_of_occupants":"11-100"},"geometry":{"type":"Point","coordinates":[-122.331589,47.600331]}},{"type":"Feature","properties":{"zip_code":"98101","no_stories":"5","confirmation_source":"Google Street View","city":"Seattle","year_built":"1910","state":"WA","neighborhood":"Belltown","building_use":"Commercial/Office","preliminary_risk_category":"Medium Risk","retrofit_level":"No visible retrofit","address":"1914 Post Al","estimated_number_of_occupants":"101+"},"geometry":{"type":"Point","coordinates":[-122.342171,47.610216]}},{"type":"Feature","properties":{"zip_code":"98121","no_stories":"2","confirmation_source":"Permit Drawing Review","city":"Seattle","year_built":"1926","state":"WA","neighborhood":"Cascade/Eastlake","building_use":"Commercial","preliminary_risk_category":"Medium Risk","retrofit_level":"Substantial Alteration","address":"2035 4th Ave","estimated_number_of_occupants":"11-100"},"geometry":{"type":"Point","coordinates":[-122.341142,47.613704]}},{"type":"Feature","properties":{"zip_code":"98109","no_stories":"1","confirmation_source":"Sandborn Insurance Maps","city":"Seattle","year_built":"1920","state":"WA","neighborhood":"Queen Anne","building_use":"Office","preliminary_risk_category":"Medium Risk","retrofit_level":"No visible retrofit","address":"303 Nickerson St","estimated_number_of_occupants":"1-10"},"geometry":{"type":"Point","coordinates":[-122.351003,47.646686]}},{"type":"Feature","properties":{"zip_code":"98105","no_stories":"3","confirmation_source":"Google Street View","city":"Seattle","year_built":"1928","state":"WA","neighborhood":"Univ Dist","building_use":"Residential","preliminary_risk_category":"Medium Risk","retrofit_level":"No visible retrofit","address":"4555 15th Ave NE","estimated_number_of_occupants":"11-100"},"geometry":{"type":"Point","coordinates":[-122.311979,47.662892]}},{"type":"Feature","properties":{"zip_code":"98104","no_stories":"1","confirmation_source":"Field Visit","city":"Seattle","year_built":"1900","state":"WA","neighborhood":"Pioneer Square/Chinatown International District","building_use":"Commercial","preliminary_risk_category":"Medium Risk","retrofit_level":"Visible retrofit","address":"320 2nd Ave S","estimated_number_of_occupants":"11-100"},"geometry":{"type":"Point","coordinates":[-122.331594,47.599245]}},{"type":"Feature","properties":{"zip_code":"98109","no_stories":"4","confirmation_source":"Photos from Previous Surveys","city":"Seattle","year_built":"1908","state":"WA","neighborhood":"Queen Anne","building_use":"Residential","preliminary_risk_category":"Medium Risk","retrofit_level":"No visible retrofit","address":"7 Harrison St","estimated_number_of_occupants":"11-100"},"geometry":{"type":"Point","coordinates":[-122.356363,47.622111]}},{"type":"Feature","properties":{"zip_code":"98104","no_stories":"5","confirmation_source":"Google Street View","city":"Seattle","year_built":"1900","state":"WA","neighborhood":"Duwamish/SODO","building_use":"Commercial","preliminary_risk_category":"High Risk","retrofit_level":"Permitted Retrofit","address":"171 S Jackson St","estimated_number_of_occupants":"101+"},"geometry":{"type":"Point","coordinates":[-122.331973,47.599201]}},{"type":"Feature","properties":{"zip_code":"98101","no_stories":"3","confirmation_source":"Sandborn Insurance Maps","city":"Seattle","year_built":"1945","state":"WA","neighborhood":"First Hill","building_use":"Office","preliminary_risk_category":"Medium Risk","retrofit_level":"No visible retrofit","address":"1210 9th Ave","estimated_number_of_occupants":"101+"},"geometry":{"type":"Point","coordinates":[-122.328957,47.610157]}},{"type":"Feature","properties":{"zip_code":"98109","no_stories":"4","confirmation_source":"Permit Drawing Review","city":"Seattle","year_built":"1908","state":"WA","neighborhood":"Queen Anne","building_use":"Residential","preliminary_risk_category":"Medium Risk","retrofit_level":"Permitted Retrofit","address":"201 Galer St","estimated_number_of_occupants":"101+"},"geometry":{"type":"Point","coordinates":[-122.35199,47.63232]}},{"type":"Feature","properties":{"zip_code":"98102","no_stories":"4","confirmation_source":"Google Street View","city":"Seattle","year_built":"1922","state":"WA","neighborhood":"North Capitol Hill","building_use":"Residential","preliminary_risk_category":"Medium Risk","retrofit_level":"No visible retrofit","address":"1112 Broadway E","estimated_number_of_occupants":"11-100"},"geometry":{"type":"Point","coordinates":[-122.321252,47.629106]}},{"type":"Feature","properties":{"zip_code":"98102","no_stories":"5","confirmation_source":"Google Street View","city":"Seattle","year_built":"1928","state":"WA","neighborhood":"Capitol Hill","building_use":"Residential","preliminary_risk_category":"Medium Risk","retrofit_level":"No visible retrofit","address":"105 Harvard Ave E","estimated_number_of_occupants":"101+"},"geometry":{"type":"Point","coordinates":[-122.322204,47.618974]}},{"type":"Feature","properties":{"zip_code":"98118","no_stories":"2","confirmation_source":"Permit Drawing Review","city":"Seattle","year_built":"1906","state":"WA","neighborhood":"Columbia City","building_use":"Commercial/Residential","preliminary_risk_category":"Medium Risk","retrofit_level":"Substantial Alteration","address":"4909 Rainier Ave S","estimated_number_of_occupants":"101+"},"geometry":{"type":"Point","coordinates":[-122.284935,47.557605]}},{"type":"Feature","properties":{"zip_code":"98119","no_stories":"1","confirmation_source":"Permit Drawing Review","city":"Seattle","year_built":"1926","state":"WA","neighborhood":"Interbay","building_use":"Commercial","preliminary_risk_category":"Medium Risk","retrofit_level":"No visible retrofit","address":"3208 15th Ave W","estimated_number_of_occupants":"1-10"},"geometry":{"type":"Point","coordinates":[-122.376153,47.648849]}},{"type":"Feature","properties":{"zip_code":"98102","no_stories":"1","confirmation_source":"Google Street View","city":"Seattle","year_built":"1927","state":"WA","neighborhood":"Capitol Hill","building_use":"Commercial","preliminary_risk_category":"Medium Risk","retrofit_level":"Visible retrofit","address":"111 Broadway E","estimated_number_of_occupants":"11-100"},"geometry":{"type":"Point","coordinates":[-122.320872,47.619241]}},{"type":"Feature","properties":{"zip_code":"98107","no_stories":"4","confirmation_source":"Field Visit","city":"Seattle","year_built":"1928","state":"WA","neighborhood":"Ballard","building_use":"Residential","preliminary_risk_category":"Medium Risk","retrofit_level":"No visible retrofit","address":"5814 22nd Ave NW","estimated_number_of_occupants":"11-100"},"geometry":{"type":"Point","coordinates":[-122.384766,47.671413]}},